     2.11           Observation data    M (MIXED)           RINEX VERSION / TYPE
smartLoc                                20180320 125714 UTC PGM / RUN BY / DATE 
                                                            MARKER NAME         
                                                            OBSERVER / AGENCY   
                                                            REC # / TYPE / VERS 
                                                            ANT # / TYPE        
        0.0000        0.0000        0.0000                  ANTENNA: DELTA H/E/N
     1     1                                                WAVELENGTH FACT L1/2
     4    C1    L1    S1    D1                              # / TYPES OF OBSERV 
  2016     6     6    11    10   41.7000000     GPS         TIME OF FIRST OBS   
  2016     6     6    11    15   25.0990000     GPS         TIME OF LAST OBS    
                                                            END OF HEADER       
 16  6  6 11 10 41.7000000  0 19G12R20R02G19G32R01R10R21R19G14R11G06
                                R09G24G17G02G25G29S20
  19834589.652 8 104231461.634 8        49.000 8       221.941 8
  19784632.158 6 105797330.978 6        40.000 6      2212.847 6
  22692892.068 4 121093619.764 4        28.000 4      1261.950 4
  22635887.812 7 118952410.665 7        43.000 7     -2784.130 7
  22234029.479 3 116840613.337 3        21.000 3       624.803 3
  22680883.199 6 121242340.240 6        38.000 6     -2367.627 6
  19093258.954 7 101777866.909 7        45.000 7       101.359 7
  22683692.244 6 121385062.028 6        37.000 6      4783.667 6
  20789511.963 8 111209916.631 8        50.000 8     -2227.765 8
  22649028.533 3 119021448.123 3        23.000 3      1602.471 3
  21029568.575 4 112375637.894 4        25.000 4      3391.158 4
  22844775.181 7 120050102.851 7        43.000 7      1125.537 7
  21642699.556 7 115408388.679 7        46.000 7     -2949.469 7
  21265194.742 8 111749318.204 8        50.000 8     -2225.085 8
  25078528.052 5 131788553.527 5        35.000 5     -3107.422 5
  23477401.607 6 123374560.068 6        38.000 6      2838.760 6
  21244172.565 4 111638879.776 4        29.000 4      2534.315 4
  23856408.051 7 125366274.393 7        46.000 7      4086.737 7
  39064556.539 6 205285625.594 6        41.000 6       297.699 6
 16  6  6 11 10 42.0000000  0 18G12R20R02G19G32R01R10R21R19G14G06R09
                                G24G17G02G25G29S20
  19834576.962 8 104231395.100 8        49.000 8       221.521 8
  19784507.900 7 105796666.174 7        45.000 7      2215.634 7
  22692827.515 5 121093275.462 5        32.000 5      1261.156 5
  22636048.982 7 118953245.723 7        46.000 7     -2783.094 7
  22234000.572 3 116840461.274 3        21.000 3       640.393 3
  22681022.805 5 121243086.301 5        30.000 5     -2364.489 5
  19093253.217 7 101777836.208 7        45.000 7       102.175 7
  22683425.513 6 121383628.237 6        38.000 6      4779.096 6
  20789637.041 8 111210584.678 8        48.000 8     -2227.045 8
  22648944.746 3 119021007.382 3        23.000 3      1602.471 3
  22844710.589 8 120049763.443 8        50.000 8      1126.057 8
  21642867.205 5 115409268.982 5        35.000 5     -2949.802 5
  21265322.059 6 111749985.651 6        41.000 6     -2221.428 6
  25078711.624 5 131789518.922 5        35.000 5     -3109.725 5
  23477239.699 6 123373726.840 6        36.000 6      2834.882 6
  21244025.102 3 111638104.929 3        21.000 3      2511.509 3
  23856174.755 7 125365048.486 7        46.000 7      4085.602 7
  39064539.712 6 205285536.588 6        40.000 6       297.143 6
 16  6  6 11 10 42.2000000  0 18G12R20R02G19G32R01R10R21R19G14G06R09
                                G24G17G02G25G29S20
  19834568.359 8 104231350.751 8        49.000 8       221.742 8
  19784425.129 7 105796223.039 7        47.000 7      2215.248 7
  22692778.571 4 121093013.884 4        28.000 4      1262.786 4
  22636156.314 8 118953803.475 8        48.000 8     -2781.141 8
  22233980.103 3 116840353.196 3        21.000 3       640.393 3
  22681112.966 5 121243568.553 5        34.000 5     -2366.609 5
  19093249.391 7 101777815.786 7        46.000 7       102.093 7
  22683246.801 6 121382677.468 6        36.000 6      4782.910 6
  20789720.406 7 111211030.124 7        43.000 7     -2228.174 7
  22648886.213 3 119020699.889 3        22.000 3      1602.471 3
  22844667.326 6 120049536.608 6        38.000 6      1125.510 6
  21642975.488 6 115409846.015 6        36.000 6     -2950.392 6
  21265411.265 5 111750489.879 5        32.000 5     -2222.416 5
  25078827.882 5 131790129.294 5        35.000 5     -3107.566 5
  23477133.733 5 123373169.688 5        33.000 5      2829.901 5
  21243930.308 3 111637607.235 3        21.000 3      2503.274 3
  23856019.191 7 125364231.369 7        47.000 7      4085.956 7
  39064528.291 6 205285477.432 6        41.000 6       295.863 6
 16  6  6 11 10 42.3999998  0 17G12R20G19G32R01R10R21R19G14G06R09G24
                                G17G02G25G29S20
  19834559.904 8 104231306.450 8        49.000 8       221.526 8
  19784342.393 7 105795779.965 7        43.000 7      2214.382 7
  22636262.752 7 118954359.994 7        45.000 7     -2782.312 7
  22233960.952 3 116840252.454 3        21.000 3       636.923 3
  22681203.432 5 121244051.492 5        34.000 5     -2354.138 5
  19093245.626 7 101777795.357 7        45.000 7       102.649 7
  22683068.464 5 121381723.139 5        35.000 5      4778.906 5
  20789803.560 7 111211475.365 7        45.000 7     -2227.545 7
  22648826.821 3 119020387.396 3        22.000 3      1602.471 3
  22844624.049 7 120049311.622 7        47.000 7      1125.456 7
  21643088.814 7 115410451.198 7        43.000 7     -2947.913 7
  21265499.493 6 111750953.934 6        41.000 6     -2228.877 6
  25078945.540 5 131790747.462 5        35.000 5     -3105.549 5
  23477022.239 5 123372584.298 5        35.000 5      2840.479 5
  21243833.255 3 111637096.469 3        21.000 3      2506.804 3
  23855863.709 7 125363414.426 7        47.000 7      4084.924 7
  39064517.167 6 205285418.489 6        39.000 6       294.542 6
 16  6  6 11 10 42.6000000  0 18G12R20R02G19G32R01R10R21R19G14G06R09
                                G24G17G02G25G29S20
  19834551.615 8 104231262.150 8        50.000 8       221.458 8
  19784259.456 7 105795337.005 7        46.000 7      2214.144 7
  22692676.776 5 121092470.970 5        32.000 5      1276.353 5
  22636367.994 7 118954916.459 7        42.000 7     -2779.910 7
  22233940.701 3 116840146.934 3        22.000 3       613.846 3
  22681295.879 5 121244546.416 5        34.000 5     -2359.699 5
  19093241.835 7 101777774.942 7        45.000 7       102.187 7
  22682890.310 6 121380769.773 6        38.000 6      4776.123 6
  20789886.898 7 111211920.436 7        44.000 7     -2224.347 7
  22648767.469 3 119020075.902 3        22.000 3      1602.471 3
  22844580.603 8 120049086.535 8        49.000 8      1124.989 8
  21643197.995 7 115411032.885 7        46.000 7     -2946.523 7
  21265585.204 5 111751399.265 5        35.000 5     -2226.809 5
  25079064.275 5 131791368.814 5        35.000 5     -3111.701 5
  23476905.249 6 123371969.596 6        41.000 6      2836.642 6
  21243738.618 3 111636599.697 3        21.000 3      2494.429 3
  23855708.337 7 125362597.586 7        47.000 7      4084.198 7
  39064506.068 6 205285359.558 6        41.000 6       293.335 6
 16  6  6 11 10 42.8000000  0 18G12R20R02G19G32R01R10R21R19G14G06R09
                                G24G17G02G25G29S20
  19834543.322 8 104231217.893 8        49.000 8       220.893 8
  19784176.721 7 105794894.010 7        46.000 7      2213.962 7
  22692626.113 5 121092200.148 5        32.000 5      1265.508 5
  22636474.772 8 118955473.074 8        51.000 8     -2782.058 8
  22233916.982 3 116840022.182 3        22.000 3       628.575 3
  22681386.974 5 121245033.200 5        30.000 5     -2361.459 5
  19093237.948 7 101777754.562 7        45.000 7       101.740 7
  22682712.549 6 121379818.605 6        38.000 6      4800.098 6
  20789970.088 6 111212365.761 6        38.000 6     -2224.933 6
  22648709.469 3 119019771.409 3        22.000 3      1602.471 3
  22844537.623 7 120048854.863 7        45.000 7      1124.512 7
  21643305.956 7 115411622.880 7        47.000 7     -2947.382 7
  21265664.550 6 111751821.310 6        39.000 6     -2234.082 6
  25079181.798 5 131791989.809 5        32.000 5     -3107.474 5
  23476792.058 7 123371374.766 7        45.000 7      2839.340 7
  21243644.160 3 111636103.401 3        21.000 3      2513.461 3
  23855552.951 7 125361780.876 7        46.000 7      4083.295 7
  39064494.800 6 205285300.682 6        41.000 6       292.490 6
 16  6  6 11 10 43.0000000  0 18G12R20R02G19G32R01R10R21R19G14G06R09
                                G24G17G02G25G29S20
  19834534.706 8 104231173.606 8        49.000 8       221.383 8
  19784094.020 7 105794451.132 7        42.000 7      2215.094 7
  22692577.658 5 121091942.524 5        32.000 5      1249.042 5
  22636582.178 8 118956029.451 8        49.000 8     -2782.805 8
  22233898.877 3 116839926.425 3        22.000 3       649.284 3
  22681474.421 5 121245500.003 5        34.000 5     -2357.832 5
  19093233.939 7 101777734.172 7        45.000 7       101.532 7
  22682535.844 5 121378873.209 5        33.000 5      4799.854 5
  20790053.827 7 111212811.421 7        43.000 7     -2222.937 7
  22648649.824 3 119019457.915 3        22.000 3      1602.471 3
  22844494.878 5 120048630.623 5        31.000 5      1124.463 5
  21643415.059 7 115412212.407 7        42.000 7     -2945.369 7
  21265750.606 7 111752273.640 7        43.000 7     -2227.979 7
  25079303.505 5 131792628.566 5        31.000 5     -3117.503 5
  23476682.562 7 123370807.144 7        45.000 7      2838.848 7
  21243552.751 3 111635622.275 3        21.000 3      2504.574 3
  23855397.479 7 125360964.207 7        46.000 7      4082.721 7
  39064483.571 6 205285241.877 6        41.000 6       294.428 6
 16  6  6 11 10 43.3000000  0 17G12R20R02G19G32R01R10R21R19G14G06R09
                                G24G02G25G29S20
  19834522.107 8 104231107.293 8        50.000 8       220.809 8
  19783969.988 7 105793786.972 7        46.000 7      2214.208 7
  22692508.717 5 121091573.944 5        32.000 5      1254.352 5
  22636741.826 7 118956864.027 7        45.000 7     -2783.751 7
  22233867.000 3 116839759.124 3        22.000 3       628.006 3
  22681611.829 5 121246234.691 5        35.000 5     -2376.563 5
  19093228.254 7 101777703.639 7        45.000 7       101.487 7
  22682267.054 5 121377434.766 5        34.000 5      4765.527 5
  20790180.022 7 111213479.200 7        45.000 7     -2226.569 7
  22648560.248 3 119018987.175 3        22.000 3      1602.471 3
  22844430.736 6 120048293.653 6        36.000 6      1125.992 6
  21643578.999 6 115413064.265 6        38.000 6     -2951.318 6
  21265879.048 6 111752947.890 6        38.000 6     -2222.119 6
  23476519.516 8 123369955.975 8        49.000 8      2836.863 8
  21243417.634 3 111634912.768 3        21.000 3      2512.835 3
  23855164.479 8 125359739.487 8        48.000 8      4082.074 8
  39064466.954 6 205285154.038 6        41.000 6       291.719 6
 16  6  6 11 10 43.5000000  0 17G12R20G19G32R01R10R21R19G14G06R09G24
                                G17G02G25G29S20
  19834513.630 8 104231063.083 8        49.000 8       221.690 8
  19783887.418 7 105793344.338 7        44.000 7      2212.504 7
  22636847.282 8 118957420.191 8        49.000 8     -2779.382 8
  22233848.620 3 116839663.023 3        23.000 3       630.862 3
  22681700.244 5 121246708.005 5        35.000 5     -2363.672 5
  19093224.472 7 101777683.265 7        45.000 7       101.482 7
  22682089.537 6 121376485.107 6        37.000 6      4784.180 6
  20790260.315 7 111213924.409 7        43.000 7     -2224.561 7
  22648502.819 3 119018684.682 3        21.000 3      1602.471 3
  22844386.037 7 120048058.766 7        42.000 7      1128.461 7
  21643689.071 6 115413651.190 6        39.000 6     -2954.576 6
  21265960.240 5 111753374.456 5        35.000 5     -2237.281 5
  25079603.644 5 131794205.811 5        31.000 5     -3135.613 5
  23476411.207 7 123369388.509 7        46.000 7      2836.337 7
  21243328.380 3 111634443.152 3        21.000 3      2512.257 3
  23855009.102 7 125358923.148 7        47.000 7      4081.537 7
  39064455.764 6 205285095.474 6        41.000 6       293.408 6
 16  6  6 11 10 43.7000000  0 16G12R20G19G32R10R21R19G14G06R09G24G17
                                G02G25G29S20
  19834505.420 8 104231018.892 8        50.000 8       221.196 8
  19783804.630 7 105792901.593 7        45.000 7      2213.016 7
  22636952.528 6 118957976.566 6        40.000 6     -2782.586 6
  22233826.376 3 116839545.350 3        22.000 3       662.112 3
  19093220.707 7 101777662.918 7        44.000 7       101.953 7
  22681910.913 6 121375529.640 6        38.000 6      4777.002 6
  20790346.114 7 111214369.493 7        44.000 7     -2225.427 7
  22648447.231 3 119018393.188 3        21.000 3      1602.471 3
  22844339.488 7 120047833.585 7        47.000 7      1126.737 7
  21643796.542 7 115414224.177 7        44.000 7     -2943.408 7
  21266041.340 6 111753801.327 6        40.000 6     -2223.096 6
  25079724.190 5 131794839.344 5        31.000 5     -3145.047 5
  23476308.726 6 123368820.998 6        40.000 6      2835.690 6
  21243236.309 3 111633959.327 3        21.000 3      2516.992 3
  23854853.808 7 125358106.785 7        47.000 7      4081.464 7
  39064444.687 6 205285036.989 6        41.000 6       291.856 6
 16  6  6 11 10 43.8999998  0 16G12R20R02G19G32R10R21R19G14G06R09G24
                                G02G25G29S20
  19834496.856 8 104230974.609 8        49.000 8       221.163 8
  19783721.850 7 105792458.870 7        46.000 7      2213.111 7
  22692361.991 5 121090791.040 5        32.000 5      1260.622 5
  22637058.264 7 118958532.698 7        47.000 7     -2780.714 7
  22233809.458 3 116839456.480 3        23.000 3       626.789 3
  19093216.698 7 101777642.465 7        44.000 7       101.852 7
  22681731.939 6 121374571.543 6        38.000 6      4768.213 6
  20790429.862 7 111214814.458 7        47.000 7     -2225.732 7
  22648387.922 3 119018081.695 3        21.000 3      1602.471 3
  22844301.526 8 120047614.384 8        50.000 8      1126.184 8
  21643909.074 8 115414824.564 8        48.000 8     -2948.552 8
  21266131.570 6 111754275.486 6        39.000 6     -2226.953 6
  23476197.215 6 123368248.492 6        39.000 6      2833.740 6
  21243142.771 3 111633468.583 3        22.000 3      2510.613 3
  23854698.392 7 125357290.358 7        46.000 7      4081.976 7
  39064433.510 6 205284978.386 6        41.000 6       293.449 6
 16  6  6 11 10 44.1000000  0 17G12R20R02G19G32R10R21R19G14G06R09G24
                                G17G02G25G29S20
  19834488.533 8 104230930.405 8        50.000 8       220.686 8
  19783639.071 7 105792016.278 7        44.000 7      2212.544 7
  22692312.550 5 121090526.930 5        32.000 5      1275.267 5
  22637164.064 7 118959088.990 7        45.000 7     -2779.642 7
  22233791.685 3 116839363.396 3        23.000 3       651.545 3
  19093212.977 7 101777622.096 7        44.000 7       101.691 7
  22681554.230 5 121373620.131 5        35.000 5      4774.854 5
  20790513.941 7 111215259.637 7        43.000 7     -2225.653 7
  22648325.983 3 119017756.202 3        21.000 3      1602.471 3
  22844254.371 7 120047389.399 7        47.000 7      1123.838 7
  21644021.510 7 115415424.186 7        42.000 7     -2947.559 7
  21266209.363 6 111754684.228 6        39.000 6     -2229.682 6
  25079954.516 5 131796050.524 5        34.000 5     -3113.044 5
  23476087.510 7 123367671.723 7        43.000 7      2840.960 7
  21243050.145 3 111632981.896 3        22.000 3      2516.021 3
  23854543.037 7 125356474.011 7        46.000 7      4082.129 7
  39064422.377 6 205284919.978 6        41.000 6       292.498 6
 16  6  6 11 10 44.3000000  0 17G12R20R02G19G32R10R21R19G14G06R09G24
                                G17G02G25G29S20
  19834480.130 8 104230886.215 8        49.000 8       220.797 8
  19783556.082 7 105791573.632 7        43.000 7      2211.114 7
  22692262.603 5 121090260.697 5        31.000 5      1277.352 5
  22637269.896 7 118959645.317 7        46.000 7     -2782.523 7
  22233772.686 3 116839263.112 3        23.000 3       625.904 3
  19093209.194 7 101777601.786 7        44.000 7       101.978 7
  22681377.778 6 121372676.617 6        38.000 6      4782.764 6
  20790595.490 7 111215704.815 7        45.000 7     -2225.934 7
  22648263.524 3 119017427.708 3        21.000 3      1602.471 3
  22844211.810 7 120047164.403 7        46.000 7      1125.115 7
  21644133.737 7 115416022.869 7        46.000 7     -2947.360 7
  21266296.213 7 111755129.734 7        45.000 7     -2228.337 7
  25080070.795 5 131796660.888 5        34.000 5     -3109.195 5
  23475981.526 6 123367104.202 6        41.000 6      2837.841 6
  21242956.442 3 111632488.951 3        22.000 3      2499.133 3
  23854387.591 7 125355657.685 7        45.000 7      4081.500 7
  39064411.240 6 205284861.389 6        39.000 6       292.603 6
 16  6  6 11 10 44.5000000  0 17G12R20R02G19G32R10R21R19G14G06R09G24
                                G17G02G25G29S20
  19834471.968 8 104230842.078 8        50.000 8       220.620 8
  19783473.355 7 105791130.980 7        45.000 7      2212.925 7
  22692214.628 5 121090004.666 5        31.000 5      1284.212 5
  22637375.395 7 118960201.373 7        43.000 7     -2780.143 7
  22233754.450 4 116839168.174 4        24.000 4       640.820 4
  19093205.394 7 101777581.529 7        45.000 7       101.071 7
  22681200.279 6 121371726.342 6        38.000 6      4779.297 6
  20790676.821 7 111216150.016 7        47.000 7     -2228.394 7
  22648204.525 3 119017117.215 3        21.000 3      1602.471 3
  22844180.081 7 120046939.281 7        47.000 7      1126.383 7
  21644244.324 8 115416612.666 8        50.000 8     -2949.314 8
  21266375.162 6 111755575.438 6        36.000 6     -2227.962 6
  25080190.107 5 131797287.745 5        31.000 5     -3103.906 5
  23475881.139 6 123366587.907 6        38.000 6      2834.671 6
  21242866.076 3 111632014.147 3        22.000 3      2512.903 3
  23854232.288 7 125354841.280 7        46.000 7      4081.775 7
  39064400.172 7 205284802.804 7        42.000 7       292.488 7
 16  6  6 11 10 44.7000000  0 17G12R20G19G32R01R10R21R19G14G06R09G24
                                G17G02G25G29S20
  19834463.465 8 104230797.940 8        49.000 8       220.529 8
  19783390.863 7 105790688.473 7        43.000 7      2212.659 7
  22637481.082 7 118960757.863 7        47.000 7     -2780.329 7
  22233733.541 4 116839057.781 4        24.000 4       638.539 4
  22682230.338 5 121249541.763 5        35.000 5     -2364.288 5
  19093201.586 7 101777561.243 7        43.000 7       101.474 7
  22681021.479 5 121370769.367 5        31.000 5      4770.080 5
  20790763.082 7 111216595.237 7        43.000 7     -2226.435 7
  22648145.325 3 119016806.721 3        21.000 3      1602.471 3
  22844129.711 7 120046714.415 7        44.000 7      1126.465 7
  21644360.494 6 115417231.731 6        38.000 6     -2951.953 6
  21266461.218 6 111756007.220 6        40.000 6     -2228.516 6
  25080305.649 5 131797895.373 5        34.000 5     -3103.288 5
  23475770.413 6 123366020.315 6        40.000 6      2838.054 6
  21242772.451 3 111631522.461 3        22.000 3      2514.472 3
  23854076.920 7 125354024.771 7        46.000 7      4082.520 7
  39064388.916 7 205284744.112 7        42.000 7       294.311 7
 16  6  6 11 10 44.8999998  0 18G12R20R02G19G32R01R10R21R19G14G06R09
                                G24G17G02G25G29S20
  19834455.081 8 104230753.811 8        51.000 8       220.718 8
  19783308.066 7 105790245.957 7        44.000 7      2210.978 7
  22692120.292 5 121089501.192 5        31.000 5      1280.809 5
  22637587.049 8 118961314.267 8        48.000 8     -2781.983 8
  22233714.494 4 116838958.211 4        25.000 4       640.435 4
  22682319.409 6 121250017.843 6        37.000 6     -2365.850 6
  19093197.804 7 101777541.052 7        42.000 7       100.942 7
  22680841.171 5 121369804.882 5        35.000 5      4787.744 5
  20790846.760 7 111217040.484 7        46.000 7     -2225.659 7
  22648084.664 3 119016487.228 3        21.000 3      1602.471 3
  22844085.282 7 120046489.283 7        42.000 7      1126.297 7
  21644471.490 6 115417823.318 6        38.000 6     -2947.607 6
  21266548.487 7 111756466.369 7        47.000 7     -2227.089 7
  25080426.509 5 131798530.449 5        33.000 5     -3120.557 5
  23475663.622 6 123365452.803 6        38.000 6      2837.738 6
  21242676.597 3 111631018.386 3        22.000 3      2508.521 3
  23853921.657 7 125353208.419 7        46.000 7      4081.378 7
  39064377.936 6 205284685.529 6        41.000 6       293.240 6
 16  6  6 11 10 45.2000000  0 17G12R20G19G32R01R10R21R19G14G06R09G24
                                G17G02G25G29S20
  19834442.656 8 104230687.724 8        50.000 8       220.167 8
  19783184.008 7 105789582.273 7        45.000 7      2211.894 7
  22637745.916 7 118962149.084 7        46.000 7     -2782.029 7
  22233681.613 4 116838784.912 4        25.000 4       632.364 4
  22682453.527 5 121250734.618 5        34.000 5     -2367.304 5
  19093192.137 7 101777510.734 7        43.000 7       100.865 7
  22680572.171 5 121368365.728 5        35.000 5      4771.484 5
  20790971.132 7 111217708.503 7        46.000 7     -2227.399 7
  22647992.915 3 119016005.488 3        21.000 3      1602.471 3
  22844024.037 7 120046152.000 7        45.000 7      1122.959 7
  21644634.480 6 115418692.747 6        39.000 6     -2958.633 6
  21266678.102 7 111757147.445 7        43.000 7     -2229.360 7
  25080603.498 6 131799460.689 6        37.000 6     -3116.016 6
  23475506.081 5 123364601.725 5        35.000 5      2837.394 5
  21242536.097 3 111630279.883 3        22.000 3      2522.406 3
  23853688.766 8 125351983.918 8        48.000 8      4081.305 8
  39064361.127 6 205284597.719 6        41.000 6       292.541 6
 16  6  6 11 10 45.5000000  0 17G12R20G19G32R01R10R21R19G14G06R09G24
                                G17G02G25G29S20
  19834430.279 8 104230621.656 8        50.000 8       220.100 8
  19783059.889 7 105788918.718 7        46.000 7      2211.040 7
  22637904.944 6 118962983.680 6        41.000 6     -2782.079 6
  22233646.992 4 116838603.054 4        26.000 4       649.029 4
  22682583.430 5 121251428.422 5        34.000 5     -2369.329 5
  19093186.374 7 101777480.472 7        43.000 7       101.291 7
  22680305.449 5 121366937.651 5        31.000 5      4761.959 5
  20791096.185 7 111218376.574 7        47.000 7     -2226.654 7
  22647903.836 3 119015537.748 3        21.000 3      1602.471 3
  22843953.677 7 120045814.704 7        47.000 7      1123.885 7
  21644800.078 7 115419577.872 7        46.000 7     -2949.009 7
  21266806.191 7 111757816.160 7        46.000 7     -2228.098 7
  25080776.661 5 131800370.583 5        34.000 5     -3110.889 5
  23475342.664 6 123363757.678 6        39.000 6      2837.434 6
  21242395.422 3 111629541.057 3        22.000 3      2510.528 3
  23853455.954 8 125350759.401 8        48.000 8      4081.750 8
  39064344.715 6 205284510.015 6        38.000 6       293.266 6
 16  6  6 11 10 45.7000000  0 17G12R20G19G32R01R10R21R19G14G06R09G24
                                G17G02G25G29S20
  19834421.855 8 104230577.636 8        50.000 8       219.594 8
  19782977.101 7 105788476.339 7        43.000 7      2212.156 7
  22638010.444 7 118963539.983 7        47.000 7     -2781.344 7
  22233625.729 4 116838491.209 4        25.000 4       617.779 4
  22682668.260 6 121251882.313 6        36.000 6     -2367.798 6
  19093182.626 7 101777460.400 7        44.000 7       100.028 7
  22680127.618 6 121365986.942 6        38.000 6      4786.063 6
  20791180.107 7 111218821.848 7        47.000 7     -2226.190 7
  22647843.323 3 119015219.254 3        22.000 3      1602.471 3
  22843919.623 7 120045589.840 7        44.000 7      1123.886 7
  21644912.331 7 115420167.688 7        45.000 7     -2948.987 7
  21266894.790 6 111758285.931 6        40.000 6     -2230.198 6
  25080895.785 5 131800996.389 5        34.000 5     -3114.160 5
  23475231.773 6 123363175.218 6        41.000 6      2834.946 6
  21242301.300 3 111629045.806 3        23.000 3      2513.739 3
  23853300.534 7 125349943.172 7        46.000 7      4080.432 7
  39064333.512 5 205284451.692 5        35.000 5       291.077 5
 16  6  6 11 10 45.8999998  0 18G12R20R02G19G32R01R10R21R19G14G06R09
                                G24G17G02G25G29S20
  19834413.401 8 104230533.628 8        49.000 8       220.046 8
  19782894.452 7 105788034.175 7        44.000 7      2209.764 7
  22691882.455 4 121088232.260 4        29.000 4      1271.635 4
  22638119.289 7 118964096.422 7        47.000 7     -2780.362 7
  22233602.555 4 116838369.583 4        25.000 4       642.468 4
  22682760.114 6 121252373.049 6        38.000 6     -2368.545 6
  19093178.853 7 101777440.275 7        44.000 7       100.649 7
  22679952.195 5 121365047.511 5        35.000 5      4777.025 5
  20791260.418 7 111219267.370 7        44.000 7     -2226.660 7
  22647781.087 3 119014892.761 3        22.000 3      1602.471 3
  22843870.885 6 120045350.937 6        40.000 6      1124.072 6
  21645021.905 6 115420757.630 6        40.000 6     -2953.058 6
  21266979.638 6 111758731.660 6        39.000 6     -2228.760 6
  25081016.061 5 131801628.457 5        34.000 5     -3106.738 5
  23475120.554 6 123362607.734 6        40.000 6      2838.690 6
  21242205.856 3 111628545.163 3        23.000 3      2510.025 3
  23853145.210 7 125349126.930 7        44.000 7      4081.421 7
  39064322.387 6 205284393.273 6        37.000 6       291.814 6
 16  6  6 11 10 46.1000000  0 18G12R20R02G19G32R01R10R21R19G14G06R09
                                G24G17G02G25G29S20
  19834405.025 8 104230489.692 8        50.000 8       219.488 8
  19782811.717 7 105787591.892 7        47.000 7      2210.043 7
  22691834.209 4 121087975.264 4        28.000 4      1282.149 4
  22638223.672 8 118964652.845 8        52.000 8     -2782.559 8
  22233579.045 5 116838246.062 5        31.000 5       639.193 5
  22682850.990 6 121252858.675 6        38.000 6     -2368.031 6
  19093175.097 7 101777420.246 7        43.000 7       100.055 7
  22679773.239 5 121364089.769 5        31.000 5      4779.743 5
  20791345.352 8 111219712.876 8        48.000 8     -2228.375 8
  22647721.097 3 119014577.267 3        22.000 3      1602.471 3
  22843842.751 6 120045203.320 6        41.000 6      1120.801 6
  21645129.682 6 115421333.869 6        41.000 6     -2951.367 6
  21267061.968 7 111759164.857 7        46.000 7     -2230.683 7
  25081137.222 6 131802264.837 6        37.000 6     -3111.865 6
  23475014.173 7 123362040.382 7        42.000 7      2837.253 7
  21242111.586 3 111628049.494 3        23.000 3      2518.544 3
  23852989.842 7 125348310.725 7        46.000 7      4081.146 7
  39064311.429 5 205284335.075 5        35.000 5       289.940 5
 16  6  6 11 10 46.3999998  0 18G12R20R02G19G32R01R10R21R19G14G06R09
                                G24G17G02G25G29S20
  19834392.613 8 104230423.795 8        50.000 8       219.579 8
  19782687.981 8 105786928.642 8        48.000 8      2210.149 8
  22691763.200 4 121087595.770 4        29.000 4      1270.633 4
  22638380.105 7 118965487.504 7        43.000 7     -2781.964 7
  22233544.053 4 116838061.729 4        24.000 4       658.714 4
  22682978.050 6 121253538.289 6        37.000 6     -2370.557 6
  19093169.316 7 101777390.176 7        44.000 7       100.662 7
  22679506.028 5 121362660.611 5        30.000 5      4799.121 5
  20791470.414 7 111220380.966 7        47.000 7     -2228.949 7
  22647630.116 3 119014099.527 3        22.000 3      1602.471 3
  22843772.073 7 120044831.940 7        43.000 7      1122.412 7
  21645297.244 6 115422227.550 6        38.000 6     -2945.703 6
  21267185.306 5 111759813.095 5        35.000 5     -2231.641 5
  25081314.991 5 131803199.782 5        34.000 5     -3107.222 5
  23474858.369 6 123361212.645 6        38.000 6      2840.576 6
  21241971.286 3 111627312.144 3        23.000 3      2499.360 3
  23852756.772 7 125347086.512 7        47.000 7      4081.451 7
  39064294.620 4 205284246.988 4        26.000 4       299.625 4
 16  6  6 11 10 46.6000000  0 18G12R20R02G19G32R01R10R21R19G14G06R09
                                G24G17G02G25G29S20
  19834384.206 8 104230379.900 8        50.000 8       219.053 8
  19782605.281 7 105786486.449 7        43.000 7      2212.329 7
  22691714.457 4 121087335.598 4        29.000 4      1257.535 4
  22638486.717 7 118966044.376 7        44.000 7     -2784.585 7
  22233520.984 4 116837941.307 4        24.000 4       631.769 4
  22683070.750 6 121254033.279 6        36.000 6     -2369.629 6
  19093165.534 7 101777370.201 7        45.000 7       100.145 7
  22679325.929 5 121361696.383 5        34.000 5      4793.457 5
  20791551.265 7 111220826.481 7        42.000 7     -2227.783 7
  22647569.782 3 119013782.034 3        22.000 3      1602.471 3
  22843715.386 7 120044533.848 7        43.000 7      1124.828 7
  21645408.668 6 115422820.809 6        38.000 6     -2952.832 6
  21267277.853 7 111760298.710 7        42.000 7     -2221.729 7
  25081432.663 5 131803818.025 5        34.000 5     -3108.624 5
  23474750.072 5 123360643.279 5        32.000 5      2839.941 5
  21241877.652 3 111626819.625 3        22.000 3      2504.748 3
  23852601.369 7 125346270.282 7        46.000 7      4080.994 7
  39064283.430 5 205284188.676 5        31.000 5       292.237 5
 16  6  6 11 10 46.8000000  0 17G12R20G19G32R01R10R21R19G14G06R09G24
                                G17G02G25G29S20
  19834375.883 8 104230336.000 8        50.000 8       219.663 8
  19782522.737 7 105786044.385 7        46.000 7      2210.309 7
  22638593.918 5 118966613.971 5        35.000 5     -2800.244 5
  22233496.536 4 116837812.423 4        24.000 4       634.439 4
  22683159.043 6 121254505.798 6        39.000 6     -2366.846 6
  19093161.786 7 101777350.235 7        46.000 7        99.857 7
  22679148.962 6 121360749.312 6        37.000 6      4778.809 6
  20791635.563 7 111221272.098 7        46.000 7     -2227.954 7
  22647509.064 3 119013462.540 3        23.000 3      1602.471 3
  22843691.710 7 120044309.642 7        44.000 7      1122.554 7
  21645513.146 6 115423378.503 6        39.000 6     -2952.978 6
  21267366.073 6 111760762.793 6        36.000 6     -2222.504 6
  25081545.417 6 131804439.197 6        36.000 6     -3099.308 6
  23474640.494 6 123360067.785 6        37.000 6      2830.713 6
  21241783.225 3 111626323.913 3        22.000 3      2499.988 3
  23852446.101 7 125345454.106 7        45.000 7      4080.933 7
  39064272.209 5 205284129.820 5        31.000 5       301.338 5
 16  6  6 11 10 47.0000000  0 18G12R20R02G19G32R01R10R21R19G14G06R09
                                G24G17G02G25G29S20
  19834367.511 8 104230292.120 8        49.000 8       219.436 8
  19782440.324 8 105785602.325 8        48.000 8      2209.531 8
  22691619.362 5 121086828.053 5        33.000 5      1261.013 5
  22638699.827 7 118967169.568 7        43.000 7     -2782.275 7
  22233473.118 4 116837689.435 4        24.000 4       633.224 4
  22683247.555 6 121254979.311 6        38.000 6     -2369.434 6
  19093158.021 7 101777330.275 7        46.000 7        99.581 7
  22678967.065 5 121359776.126 5        35.000 5      4771.045 5
  20791718.525 6 111221721.725 6        40.000 6     -2228.564 6
  22647447.883 3 119013141.047 3        23.000 3      1602.471 3
  22843650.894 7 120044195.580 7        42.000 7      1127.607 7
  21645628.907 8 115423995.431 8        50.000 8     -2948.291 8
  21267446.270 6 111761184.110 6        38.000 6     -2229.291 6
  25081664.956 5 131805038.002 5        33.000 5     -3111.675 5
  23474532.857 5 123359502.390 5        34.000 5      2847.705 5
  21241687.144 3 111625819.134 3        22.000 3      2522.801 3
  23852290.655 7 125344637.885 7        46.000 7      4081.158 7
  39064260.330 5 205284073.311 5        30.000 5       297.093 5
 16  6  6 11 10 47.2000000  0 18G12R20R02G19G32R01R10R21R19G14G06R09
                                G24G17G02G25G29S20
  19834358.991 8 104230248.295 8        50.000 8       219.200 8
  19782357.666 7 105785160.255 7        46.000 7      2211.276 7
  22691571.902 5 121086575.211 5        30.000 5      1269.580 5
  22638805.759 7 118967726.437 7        42.000 7     -2785.834 7
  22233449.085 4 116837563.494 4        24.000 4       650.855 4
  22683338.074 6 121255462.566 6        36.000 6     -2365.771 6
  19093154.344 7 101777310.373 7        45.000 7        99.922 7
  22678788.144 5 121358818.619 5        35.000 5      4779.590 5
  20791804.777 7 111222183.384 7        42.000 7     -2227.637 7
  22647387.623 4 119012824.554 4        24.000 4      1602.471 4
  22843593.958 6 120043971.428 6        40.000 6      1116.262 6
  21645738.987 7 115424582.683 7        46.000 7     -2951.949 7
  21267535.209 6 111761651.771 6        38.000 6     -2223.242 6
  25081784.459 5 131805666.872 5        33.000 5     -3104.741 5
  23474425.193 6 123358936.468 6        37.000 6      2836.377 6
  21241590.998 3 111625313.949 3        22.000 3      2517.000 3
  23852135.474 7 125343821.608 7        47.000 7      4081.335 7
  39064249.271 5 205284015.011 5        30.000 5       288.269 5
 16  6  6 11 10 47.5000000  0 18G12R20R02G19G32R01R10R21R19G14G06R09
                                G24G17G02G25G29S20
  19834346.152 8 104230182.586 8        50.000 8       218.620 8
  19782233.888 7 105784497.214 7        47.000 7      2209.742 7
  22691498.205 5 121086181.422 5        34.000 5      1266.368 5
  22638961.105 7 118968543.378 7        43.000 7     -2785.011 7
  22233411.933 4 116837368.122 4        24.000 4       638.001 4
  22683468.431 6 121256159.778 6        38.000 6     -2374.316 6
  19093148.782 7 101777280.633 7        46.000 7        98.156 7
  22678520.846 6 121357388.264 6        39.000 6      4786.377 6
  20791927.108 7 111222852.020 7        43.000 7     -2230.548 7
  22647296.315 3 119012344.813 3        23.000 3      1602.471 3
  22843541.782 7 120043621.456 7        46.000 7      1124.477 7
  21645902.483 7 115425454.357 7        45.000 7     -2952.246 7
  21267657.077 6 111762292.097 6        41.000 6     -2226.074 6
  25081964.393 5 131806612.025 5        33.000 5     -3123.633 5
  23474266.645 5 123358102.820 5        34.000 5      2847.607 5
  21241449.550 3 111624570.667 3        22.000 3      2507.142 3
  23851902.523 8 125342597.152 8        48.000 8      4081.805 8
  39064232.388 4 205283925.933 4        29.000 4       293.641 4
 16  6  6 11 10 47.7000000  0 18G12R20R02G19G32R01R10R21R19G14G06R09
                                G24G17G02G25G29S20
  19834337.946 8 104230138.806 8        50.000 8       219.192 8
  19782151.265 7 105784055.238 7        46.000 7      2208.876 7
  22691451.120 5 121085930.945 5        30.000 5      1260.583 5
  22639071.076 7 118969099.985 7        47.000 7     -2782.576 7
  22233387.149 4 116837237.285 4        24.000 4       635.783 4
  22683554.081 5 121256617.046 5        32.000 5     -2383.301 5
  19093145.034 7 101777260.821 7        44.000 7        98.903 7
  22678341.340 6 121356427.290 6        38.000 6      4777.100 6
  20792009.486 7 111223297.966 7        45.000 7     -2230.585 7
  22647236.068 3 119012028.320 3        23.000 3      1602.471 3
  22843497.389 5 120043397.444 5        35.000 5      1117.560 5
  21646015.774 7 115426058.499 7        45.000 7     -2951.064 7
  21267735.725 6 111762704.986 6        41.000 6     -2230.428 6
  25082083.900 5 131807239.539 5        33.000 5     -3133.887 5
  23474161.756 5 123357551.651 5        30.000 5      2840.967 5
  21241356.916 3 111624083.781 3        22.000 3      2511.661 3
  23851747.046 7 125341780.748 7        47.000 7      4082.556 7
  39064221.285 4 205283867.571 4        28.000 4       294.769 4
 16  6  6 11 10 47.8999998  0 18G12R20R02G19G32R01R10R21R19G14G06R09
                                G24G17G02G25G29S20
  19834329.770 8 104230095.084 8        50.000 8       218.810 8
  19782068.494 7 105783613.167 7        46.000 7      2210.382 7
  22691406.382 5 121085691.582 5        30.000 5      1254.138 5
  22639173.487 7 118969656.973 7        46.000 7     -2784.102 7
  22233363.757 4 116837114.331 4        25.000 4       631.011 4
  22683646.607 6 121257111.663 6        38.000 6     -2373.400 6
  19093141.304 7 101777241.068 7        45.000 7        98.826 7
  22678162.497 5 121355470.954 5        31.000 5      4788.037 5
  20792091.986 7 111223743.893 7        45.000 7     -2232.031 7
  22647174.443 3 119011704.827 3        23.000 3      1602.471 3
  22843447.368 6 120043173.174 6        40.000 6      1118.209 6
  21646129.039 6 115426649.408 6        37.000 6     -2956.647 6
  21267834.288 6 111763222.986 6        38.000 6     -2216.748 6
  25082206.078 5 131807881.713 5        32.000 5     -3139.013 5
  23474059.471 5 123357014.992 5        34.000 5      2832.568 5
  21241262.227 3 111623585.578 3        22.000 3      2504.992 3
  23851591.665 7 125340964.173 7        46.000 7      4083.069 7
  39064210.593 4 205283811.687 4        27.000 4       273.045 4
 16  6  6 11 10 48.1000000  0 18G12R20R02G19G32R01R10R21R19G14G06R09
                                G24G17G02G25G29S20
  19834321.508 8 104230051.302 8        50.000 8       218.268 8
  19781985.950 7 105783171.100 7        44.000 7      2210.831 7
  22691367.647 5 121085441.965 5        34.000 5      1246.526 5
  22639279.018 7 118970214.046 7        44.000 7     -2788.384 7
  22233340.483 4 116836992.617 4        24.000 4       636.083 4
  22683735.633 5 121257587.831 5        31.000 5     -2370.397 5
  19093137.574 7 101777221.284 7        45.000 7        98.698 7
  22677986.341 6 121354527.690 6        38.000 6      4774.756 6
  20792174.513 6 111224189.901 6        41.000 6     -2230.176 6
  22647113.206 4 119011382.333 4        24.000 4      1602.471 4
  22843419.757 6 120042980.988 6        41.000 6      1124.274 6
  21646240.759 5 115427258.030 5        31.000 5     -2944.824 5
  21267921.963 6 111763683.507 6        38.000 6     -2229.248 6
  25082324.556 5 131808504.946 5        32.000 5     -3109.717 5
  23473947.807 6 123356428.147 6        36.000 6      2833.398 6
  21241166.216 3 111623081.526 3        22.000 3      2546.470 3
  23851436.100 7 125340147.451 7        46.000 7      4083.643 7
  39064199.952 4 205283756.187 4        27.000 4       277.000 4
 16  6  6 11 10 48.3999998  0 17G12R20R02G19G32R01R10R21R19G06R09G24
                                G17G02G25G29S20
  19834308.704 8 104229985.749 8        50.000 8       218.319 8
  19781862.050 7 105782508.042 7        44.000 7      2211.984 7
  22691297.720 5 121085111.824 5        30.000 5      1241.406 5
  22639441.706 8 118971049.703 8        48.000 8     -2785.922 8
  22233303.410 4 116836797.235 4        24.000 4       636.060 4
  22683868.521 5 121258298.320 5        34.000 5     -2377.398 5
  19093131.977 7 101777191.812 7        45.000 7        97.840 7
  22677720.212 6 121353103.656 6        37.000 6      4776.785 6
  20792299.225 7 111224828.481 7        42.000 7     -2233.399 7
  22843341.305 7 120042568.041 7        45.000 7      1120.397 7
  21646402.693 6 115428122.189 6        39.000 6     -2952.572 6
  21268043.198 6 111764320.487 6        40.000 6     -2223.828 6
  25082496.310 6 131809407.721 6        36.000 6     -3110.596 6
  23473779.522 7 123355543.888 7        43.000 7      2836.776 7
  21241021.204 3 111622319.055 3        21.000 3      2515.220 3
  23851203.013 7 125338922.349 7        46.000 7      4084.149 7
  39064184.404 4 205283674.418 4        27.000 4       264.915 4
 16  6  6 11 10 48.6000000  0 17G12R20R02G19G32R01R10R21R19G06R09G24
                                G17G02G25G29S20
  19834300.541 8 104229942.119 8        50.000 8       217.641 8
  19781779.567 7 105782066.049 7        47.000 7      2209.258 7
  22691245.740 5 121084834.512 5        30.000 5      1244.855 5
  22639548.514 7 118971606.746 7        46.000 7     -2784.592 7
  22233278.827 4 116836668.143 4        25.000 4       621.810 4
  22683961.116 5 121258793.630 5        34.000 5     -2376.761 5
  19093128.291 7 101777172.218 7        45.000 7        96.910 7
  22677542.504 5 121352153.368 5        32.000 5      4780.420 5
  20792383.784 7 111225280.228 7        42.000 7     -2228.156 7
  22843294.648 7 120042343.761 7        47.000 7      1118.882 7
  21646505.976 8 115428712.277 8        50.000 8     -2950.629 8
  21268126.226 6 111764766.332 6        39.000 6     -2229.681 6
  25082613.615 6 131810023.771 6        36.000 6     -3109.254 6
  23473667.413 7 123354976.381 7        43.000 7      2837.741 7
  21240926.349 3 111621820.863 3        21.000 3      2518.802 3
  23851047.602 7 125338105.526 7        46.000 7      4084.558 7
  39064174.418 4 205283621.844 4        27.000 4       261.228 4
 16  6  6 11 10 48.8000000  0 16G12R20G19G32R01R10R21R19G06R09G24G17
                                G02G25G29S20
  19834292.270 8 104229898.499 8        51.000 8       217.975 8
  19781696.866 7 105781624.005 7        42.000 7      2209.214 7
  22639651.331 7 118972163.951 7        46.000 7     -2787.144 7
  22233254.855 4 116836541.942 4        25.000 4       637.258 4
  22684049.209 6 121259268.535 6        40.000 6     -2374.281 6
  19093124.596 7 101777152.603 7        45.000 7        97.863 7
  22677363.713 6 121351196.090 6        41.000 6      4779.267 6
  20792468.710 8 111225726.821 8        48.000 8     -2232.251 8
  22843249.565 7 120042085.786 7        45.000 7      1121.084 7
  21646625.410 8 115429302.332 8        49.000 8     -2949.605 8
  21268209.280 8 111765193.260 8        49.000 8     -2230.808 8
  25082727.909 5 131810624.570 5        32.000 5     -3106.002 5
  23473555.479 5 123354366.410 5        34.000 5      2831.219 5
  21240829.636 3 111621312.133 3        21.000 3      2512.995 3
  23850892.194 7 125337288.561 7        47.000 7      4085.309 7
  39064164.520 4 205283570.010 4        27.000 4       261.841 4
 16  6  6 11 10 49.0000000  0 15G12R20R02G19G32R01R10R21R19G06R09G24
                                G02G25G29
  19834283.985 8 104229854.882 8        50.000 8       218.103 8
  19781614.156 6 105781181.699 6        41.000 6      2212.450 6
  22691141.047 5 121084275.734 5        30.000 5      1269.763 5
  22639756.050 7 118972721.227 7        43.000 7     -2786.128 7
  22233229.373 4 116836408.446 4        25.000 4       632.242 4
  22684138.463 6 121259741.656 6        41.000 6     -2366.941 6
  19093120.996 7 101777133.098 7        45.000 7        97.375 7
  22677184.617 6 121350238.206 6        37.000 6      4780.065 6
  20792552.170 7 111226173.369 7        47.000 7     -2232.898 7
  22843206.603 6 120041859.920 6        37.000 6      1119.678 6
  21646737.340 8 115429892.545 8        49.000 8     -2952.066 8
  21268283.252 6 111765638.859 6        38.000 6     -2227.998 6
  23473447.135 5 123353796.874 5        34.000 5      2844.967 5
  21240733.101 3 111620805.463 3        22.000 3      2521.185 3
  23850736.678 7 125336471.511 7        46.000 7      4085.626 7
 16  6  6 11 10 49.2000000  0 14G12R20G19G32R01R10R21R19G06R09G24G02
                                G25G29
  19834275.793 8 104229811.350 8        51.000 8       217.671 8
  19781531.412 5 105780739.685 5        34.000 5      2211.453 5
  22639862.679 7 118973278.661 7        47.000 7     -2787.488 7
  22233204.528 4 116836278.244 4        25.000 4       631.938 4
  22684224.052 5 121260198.714 5        35.000 5     -2371.169 5
  19093117.301 7 101777113.675 7        45.000 7        96.605 7
  22677003.113 7 121349266.298 7        42.000 7      4777.395 7
  20792635.543 8 111226627.036 8        49.000 8     -2234.992 8
  22843164.631 6 120041639.939 6        39.000 6      1121.759 6
  21646843.232 7 115430471.037 7        45.000 7     -2947.656 7
  21268372.806 7 111766084.904 7        46.000 7     -2228.809 7
  23473344.763 6 123353258.398 6        37.000 6      2830.296 6
  21240637.505 3 111620302.939 3        23.000 3      2519.871 3
  23850581.341 7 125335654.369 7        46.000 7      4085.846 7
 16  6  6 11 10 49.3999998  0 16G12R20R02G19G32R01R10R21R19G06R09G24
                                G17G02G25G29
  19834267.482 8 104229767.920 8        51.000 8       216.997 8
  19781448.763 6 105780311.398 6        37.000 6      2210.205 6
  22691049.617 5 121083787.830 5        30.000 5      1256.366 5
  22639964.659 7 118973836.552 7        44.000 7     -2788.427 7
  22233180.731 4 116836153.073 4        25.000 4       624.270 4
  22684313.262 6 121260675.274 6        38.000 6     -2374.133 6
  19093113.798 7 101777094.384 7        45.000 7        96.072 7
  22676824.959 5 121348313.064 5        32.000 5      4790.967 5
  20792719.893 8 111227073.938 8        50.000 8     -2234.338 8
  22843122.017 7 120041416.286 7        44.000 7      1114.877 7
  21646957.815 7 115431082.204 7        42.000 7     -2953.324 7
  21268457.401 8 111766530.531 8        49.000 8     -2230.356 8
  25083084.710 5 131812499.010 5        33.000 5     -3137.163 5
  23473231.149 5 123352662.157 5        34.000 5      2843.383 5
  21240540.791 3 111619795.181 3        23.000 3      2528.994 3
  23850425.881 8 125334837.176 8        48.000 8      4086.597 8
 16  6  6 11 10 49.6000000  0 15G12R20R02G19G32R01R10R21R19G06R09G24
                                G02G25G29
  19834259.215 8 104229724.477 8        51.000 8       217.186 8
  19781366.062 7 105779869.824 7        45.000 7      2208.025 7
  22690998.274 4 121083513.804 4        29.000 4      1249.613 4
  22640076.288 7 118974394.669 7        43.000 7     -2793.187 7
  22233156.990 4 116836028.454 4        26.000 4       631.265 4
  22684400.814 6 121261143.867 6        38.000 6     -2375.146 6
  19093110.051 7 101777075.141 7        45.000 7        96.362 7
  22676647.373 6 121347362.613 6        40.000 6      4781.592 6
  20792803.205 8 111227521.044 8        48.000 8     -2235.608 8
  22843077.275 7 120041192.736 7        47.000 7      1115.934 7
  21647066.246 6 115431659.926 6        41.000 6     -2951.416 6
  21268541.576 7 111766976.301 7        47.000 7     -2227.456 7
  23473126.844 6 123352114.075 6        39.000 6      2832.080 6
  21240443.711 3 111619284.725 3        23.000 3      2515.909 3
  23850270.160 8 125334019.763 8        48.000 8      4087.567 8
 16  6  6 11 10 49.8000000  0 15G12R20G19G32R01R10R21R19G06R09G24G17
                                G02G25G29
  19834250.957 8 104229681.094 8        50.000 8       216.513 8
  19781283.492 7 105779427.983 7        46.000 7      2208.684 7
  22640180.103 7 118974953.049 7        45.000 7     -2792.922 7
  22233132.887 4 116835901.326 4        25.000 4       634.081 4
  22684489.509 5 121261617.446 5        34.000 5     -2378.760 5
  19093106.487 7 101777056.087 7        46.000 7        94.600 7
  22676470.240 6 121346415.477 6        40.000 6      4781.084 6
  20792886.316 6 111227968.119 6        41.000 6     -2236.646 6
  22843034.326 7 120040969.795 7        46.000 7      1112.259 7
  21647185.279 6 115432295.201 6        40.000 6     -2953.160 6
  21268626.192 6 111767384.957 6        37.000 6     -2230.176 6
  25083323.573 6 131813754.645 6        36.000 6     -3111.671 6
  23473026.440 6 123351585.734 6        38.000 6      2843.847 6
  21240347.875 4 111618780.883 4        24.000 4      2519.220 4
  23850114.565 8 125333202.092 8        48.000 8      4088.409 8
 16  6  6 11 10 50.0000000  0 16G12R20R02G19G32R01R10R21R19G06R09G24
                                G17G02G25G29
  19834242.541 8 104229637.700 8        50.000 8       217.301 8
  19781200.852 7 105778986.569 7        45.000 7      2208.179 7
  22690896.260 4 121082970.088 4        29.000 4      1285.237 4
  22640289.630 7 118975511.792 7        43.000 7     -2792.747 7
  22233108.195 4 116835772.126 4        25.000 4       630.670 4
  22684578.754 6 121262095.162 6        37.000 6     -2376.589 6
  19093102.888 7 101777037.116 7        44.000 7        94.945 7
  22676291.711 7 121345459.344 7        43.000 7      4781.792 7
  20792973.100 8 111228415.726 8        51.000 8     -2237.525 8
  22842991.930 7 120040747.161 7        47.000 7      1112.685 7
  21647292.357 7 115432866.341 7        45.000 7     -2954.980 7
  21268715.289 7 111767852.644 7        47.000 7     -2225.608 7
  25083435.625 5 131814343.736 5        33.000 5     -3112.768 5
  23472916.997 6 123351011.217 6        40.000 6      2829.901 6
  21240250.690 4 111618270.495 4        24.000 4      2511.993 4
  23849958.952 8 125332384.160 8        49.000 8      4090.875 8
 16  6  6 11 10 50.2000000  0 15G12R20G19G32R01R10R21R19G06R09G24G17
                                G02G25G29
  19834234.113 8 104229594.325 8        50.000 8       217.268 8
  19781118.151 7 105778545.125 7        46.000 7      2207.325 7
  22640393.506 7 118976070.808 7        44.000 7     -2796.461 7
  22233081.609 4 116835632.327 4        25.000 4       610.101 4
  22684668.391 7 121262574.463 7        42.000 7     -2377.002 7
  19093099.384 7 101777018.251 7        45.000 7        93.914 7
  22676111.638 5 121344496.498 5        35.000 5      4794.531 5
  20793052.607 8 111228863.948 8        48.000 8     -2239.997 8
  22842949.107 7 120040524.987 7        43.000 7      1110.422 7
  21647404.549 7 115433463.856 7        45.000 7     -2958.790 7
  21268800.686 7 111768301.617 7        44.000 7     -2226.807 7
  25083553.745 5 131814964.020 5        34.000 5     -3117.845 5
  23472807.274 6 123350434.324 6        37.000 6      2831.250 6
  21240151.765 4 111617750.632 4        24.000 4      2539.901 4
  23849803.454 7 125331565.957 7        47.000 7      4091.956 7
 16  6  6 11 10 50.3999998  0 17G12R20R02G19G32R01R10R21R19R11G06R09
                                G24G17G02G25G29
  19834225.902 8 104229550.889 8        50.000 8       217.028 8
  19781035.546 7 105778103.799 7        45.000 7      2206.082 7
  22690801.209 4 121082462.422 4        29.000 4      1244.634 4
  22640501.619 7 118976630.156 7        46.000 7     -2798.864 7
  22233055.059 4 116835492.524 4        25.000 4       634.972 4
  22684756.467 7 121263044.656 7        42.000 7     -2382.451 7
  19093095.820 7 101776999.400 7        44.000 7        94.090 7
  22675929.602 6 121343522.401 6        38.000 6      4784.783 6
  20793135.823 8 111229303.183 8        49.000 8     -2241.553 8
  21024064.331 4 112346225.233 4        25.000 4      3385.521 4
  22842905.997 7 120040303.193 7        43.000 7      1109.402 7
  21647537.350 8 115434054.368 8        49.000 8     -2949.038 8
  21268887.383 7 111768756.718 7        47.000 7     -2220.605 7
  25083673.423 5 131815593.425 5        34.000 5     -3106.173 5
  23472688.831 7 123349812.035 7        43.000 7      2830.500 7
  21240050.008 5 111617215.645 5        30.000 5      2528.719 5
  23849647.815 7 125330747.360 7        47.000 7      4093.146 7
 16  6  6 11 10 50.6000000  0 17G12R20R02G19G32R01R10R21R19R11G06R09
                                G24G17G02G25G29
  19834217.531 8 104229507.467 8        49.000 8       216.567 8
  19780953.011 7 105777662.612 7        46.000 7      2205.125 7
  22690754.900 4 121082215.776 4        29.000 4      1256.799 4
  22640610.330 8 118977188.837 8        48.000 8     -2793.618 8
  22233027.906 4 116835349.705 4        25.000 4       623.445 4
  22684844.586 5 121263516.441 5        31.000 5     -2379.932 5
  19093092.326 7 101776980.696 7        44.000 7        93.586 7
  22675751.213 7 121342565.638 7        42.000 7      4784.684 7
  20793221.316 8 111229761.197 8        50.000 8     -2244.959 8
  21023937.656 4 112345548.309 4        26.000 4      3385.052 4
  22842869.561 6 120040088.922 6        36.000 6      1102.403 6
  21647629.788 7 115434665.000 7        46.000 7     -2960.205 7
  21268965.268 7 111769166.683 7        43.000 7     -2232.241 7
  25083793.965 4 131816226.571 4        28.000 4     -3117.383 4
  23472576.827 6 123349223.130 6        41.000 6      2828.147 6
  21239945.769 5 111616668.212 5        34.000 5      2533.361 5
  23849492.063 7 125329928.561 7        45.000 7      4095.831 7
 16  6  6 11 10 50.8000000  0 15G12R20R02G19G32R01R10R21R19R11G06R09
                                G24G02G29
  19834209.198 8 104229464.084 8        50.000 8       216.448 8
  19780870.528 7 105777221.596 7        47.000 7      2204.279 7
  22690704.543 4 121081946.327 4        29.000 4      1251.521 4
  22640716.362 8 118977766.809 8        50.000 8     -2801.953 8
  22233001.705 4 116835211.984 4        26.000 4       635.905 4
  22684931.100 5 121263978.137 5        31.000 5     -2383.151 5
  19093088.814 7 101776962.106 7        44.000 7        93.075 7
  22675572.605 6 121341611.640 6        39.000 6      4783.301 6
  20793308.511 8 111230227.385 8        48.000 8     -2236.817 8
  21023809.680 4 112344864.564 4        26.000 4      3395.203 4
  22842837.871 6 120039922.873 6        36.000 6      1106.167 6
  21647735.567 8 115435229.335 8        48.000 8     -2964.729 8
  21269051.768 7 111769620.627 7        47.000 7     -2233.496 7
  23472467.998 7 123348657.615 7        42.000 7      2825.156 7
  23849336.272 7 125329109.573 7        45.000 7      4095.618 7
 16  6  6 11 10 51.0000000  0 16G12R20R02G19G32R01R10R21R19R11G06R09
                                G24G17G02G29
  19834201.184 8 104229420.714 8        51.000 8       216.358 8
  19780787.958 7 105776780.700 7        47.000 7      2204.072 7
  22690657.659 4 121081696.150 4        29.000 4      1253.493 4
  22640822.930 8 118978327.194 8        50.000 8     -2796.189 8
  22232969.710 4 116835043.968 4        26.000 4       635.617 4
  22685021.758 6 121264463.064 6        37.000 6     -2387.911 6
  19093085.450 7 101776943.644 7        44.000 7        91.967 7
  22675395.778 7 121340665.083 7        42.000 7      4793.972 7
  20793390.618 8 111230666.894 8        49.000 8     -2245.801 8
  21023682.141 4 112344182.567 4        25.000 4      3392.351 4
  22842811.504 6 120039784.106 6        39.000 6      1117.139 6
  21647842.183 8 115435822.266 8        48.000 8     -2966.690 8
  21269138.199 8 111770075.261 8        49.000 8     -2222.191 8
  25084038.347 4 131817510.416 4        29.000 4     -3126.399 4
  23472361.111 7 123348090.129 7        44.000 7      2826.123 7
  23849180.402 7 125328290.147 7        44.000 7      4097.546 7
 16  6  6 11 10 51.2000000  0 15G12R20R02G19G32R10R21R19R11G06R09G24
                                G17G02G29
  19834192.869 8 104229377.324 8        50.000 8       217.112 8
  19780705.449 7 105776339.882 7        46.000 7      2204.103 7
  22690606.508 5 121081424.023 5        34.000 5      1244.869 5
  22640932.282 8 118978902.064 8        50.000 8     -2795.898 8
  22232941.741 4 116834896.565 4        26.000 4       635.981 4
  19093082.043 7 101776925.306 7        44.000 7        91.559 7
  22675215.478 6 121339701.051 6        40.000 6      4789.160 6
  20793474.043 8 111231112.352 8        49.000 8     -2245.020 8
  21023553.258 4 112343493.523 4        25.000 4      3388.849 4
  22842752.400 7 120039474.042 7        44.000 7      1103.613 7
  21647961.469 7 115436433.371 7        45.000 7     -2965.966 7
  21269222.911 8 111770520.595 8        48.000 8     -2220.703 8
  25084156.328 5 131818131.096 5        33.000 5     -3127.282 5
  23472252.226 6 123347517.107 6        41.000 6      2824.779 6
  23849024.458 6 125327470.509 6        37.000 6      4097.827 6
 16  6  6 11 10 51.3999998  0 17G12R20R02G19G32R01R10R21R19R11G06R09
                                G24G17G02G25G29
  19834184.611 8 104229333.989 8        50.000 8       216.675 8
  19780622.774 7 105775899.144 7        46.000 7      2202.872 7
  22690561.220 5 121081182.023 5        30.000 5      1242.780 5
  22641037.367 8 118979453.886 8        49.000 8     -2801.105 8
  22232913.546 4 116834748.434 4        27.000 4       648.923 4
  22685200.605 6 121265419.101 6        39.000 6     -2387.211 6
  19093078.715 7 101776907.134 7        45.000 7        90.234 7
  22675035.789 7 121338739.168 7        46.000 7      4799.749 7
  20793558.725 8 111231565.413 8        49.000 8     -2249.463 8
  21023424.715 4 112342806.681 4        25.000 4      3393.979 4
  22842698.104 7 120039188.099 7        46.000 7      1098.491 7
  21648083.511 7 115437085.003 7        44.000 7     -2964.746 7
  21269307.545 7 111770965.236 7        47.000 7     -2219.238 7
  25084271.726 5 131818737.368 5        33.000 5     -3123.013 5
  23472145.484 7 123346952.202 7        42.000 7      2824.350 7
  21239499.772 7 111614324.622 7        44.000 7      2537.256 7
  23848868.371 5 125326650.329 5        35.000 5      4101.898 5
 16  6  6 11 10 51.6000000  0 17G12R20R02G19G32R01R10R21R19R11G06R09
                                G24G17G02G25G29
  19834176.435 8 104229290.747 8        49.000 8       215.810 8
  19780540.222 7 105775458.479 7        46.000 7      2203.567 7
  22690512.896 5 121080923.998 5        30.000 5      1244.934 5
  22641143.634 8 118980013.987 8        48.000 8     -2803.239 8
  22232882.123 4 116834583.619 4        27.000 4       649.106 4
  22685288.890 5 121265890.747 5        34.000 5     -2389.797 5
  19093075.203 7 101776889.075 7        45.000 7        90.154 7
  22674855.846 6 121337781.378 6        38.000 6      4783.590 6
  20793643.529 7 111232019.569 7        44.000 7     -2254.346 7
  21023296.661 4 112342123.063 4        26.000 4      3403.746 4
  22842655.224 7 120038968.880 7        45.000 7      1095.073 7
  21648217.533 7 115437799.332 7        43.000 7     -2933.398 7
  21269391.123 7 111771404.220 7        45.000 7     -2227.622 7
  25084387.150 5 131819343.870 5        33.000 5     -3123.392 5
  23472041.384 7 123346387.524 7        44.000 7      2822.807 7
  21239395.324 7 111613775.489 7        43.000 7      2535.262 7
  23848712.222 5 125325829.913 5        35.000 5      4105.036 5
 16  6  6 11 10 51.8999998  0 15G12R20G19G32R01R10R21R19G06R09G24G17
                                G02G25G29
  19834164.085 8 104229225.864 8        50.000 8       216.469 8
  19780416.522 7 105774797.470 7        46.000 7      2203.329 7
  22641303.553 7 118980852.925 7        45.000 7     -2812.842 7
  22232834.990 5 116834335.651 5        31.000 5       651.424 5
  22685423.733 6 121266607.685 6        40.000 6     -2390.332 6
  19093070.024 7 101776862.230 7        46.000 7        89.252 7
  22674590.904 7 121336358.120 7        43.000 7      4791.013 7
  20793770.509 8 111232698.539 8        48.000 8     -2239.063 8
  22842589.022 7 120038640.583 7        46.000 7      1092.936 7
  21648404.831 7 115438679.997 7        45.000 7     -2935.525 7
  21269514.801 7 111772054.130 7        44.000 7     -2228.403 7
  25084567.420 5 131820290.872 5        33.000 5     -3121.585 5
  23471876.471 7 123345540.625 7        43.000 7      2821.934 7
  21239259.648 7 111613014.897 7        45.000 7      2536.504 7
  23848478.397 4 125324598.976 4        27.000 4      4103.177 4
 16  6  6 11 10 52.1000000  0 15G12R20G19G32R01R10R21R19G06R09G24G17
                                G02G25G29
  19834155.814 8 104229182.758 8        50.000 8       215.182 8
  19780333.960 7 105774356.811 7        45.000 7      2203.621 7
  22641409.925 7 118981411.906 7        47.000 7     -2815.239 7
  22232801.546 5 116834205.501 5        31.000 5       650.100 5
  22685516.319 6 121267085.675 6        38.000 6     -2390.024 6
  19093066.722 7 101776844.558 7        46.000 7        88.056 7
  22674411.590 7 121335398.736 7        45.000 7      4793.164 7
  20793858.925 7 111233147.431 7        45.000 7     -2244.849 7
  22842553.782 7 120038422.237 7        47.000 7      1090.881 7
  21648522.999 7 115439267.022 7        44.000 7     -2934.130 7
  21269599.552 7 111772500.698 7        45.000 7     -2232.341 7
  25084685.558 4 131820915.359 4        29.000 4     -3122.452 4
  23471769.658 7 123344975.996 7        44.000 7      2822.939 7
  21239151.719 7 111612507.951 7        45.000 7      2534.961 7
  23848323.056 5 125323783.071 5        33.000 5      4102.222 5
 16  6  6 11 10 52.3000000  0 14G12R20G19G32R01R10R21R19G06R09G24G02
                                G25G29
  19834147.638 8 104229139.596 8        49.000 8       214.892 8
  19780251.381 7 105773916.094 7        45.000 7      2203.926 7
  22641516.393 8 118981971.297 8        48.000 8     -2810.205 8
  22232763.007 5 116834075.105 5        31.000 5       653.554 5
  22685601.419 5 121267562.129 5        33.000 5     -2375.928 5
  19093063.419 7 101776826.965 7        46.000 7        88.061 7
  22674229.632 7 121334424.745 7        47.000 7      4795.208 7
  20793943.275 7 111233596.617 7        43.000 7     -2246.564 7
  22842506.496 7 120038204.127 7        44.000 7      1089.865 7
  21648641.360 6 115439854.036 6        41.000 6     -2932.955 6
  21269684.579 7 111772945.939 7        44.000 7     -2230.536 7
  23471659.046 7 123344411.447 7        44.000 7      2822.988 7
  21239060.851 7 111612000.918 7        44.000 7      2535.123 7
  23848167.291 4 125322964.964 4        28.000 4      4107.898 4
 16  6  6 11 10 52.5000000  0 15G12R20G19G32R01R10R21R19G06R09G24G17
                                G02G25G29
  19834139.341 8 104229096.250 8        50.000 8       217.252 8
  19780168.933 7 105773475.236 7        45.000 7      2204.830 7
  22641621.997 7 118982526.397 7        44.000 7     -2818.994 7
  22232726.859 5 116833944.832 5        31.000 5       651.177 5
  22685671.172 6 121267934.513 6        36.000 6     -2349.854 6
  19093060.047 8 101776809.255 8        48.000 8        89.325 8
  22674052.264 7 121333465.659 7        44.000 7      4794.829 7
  20794024.877 7 111234045.827 7        43.000 7     -2247.119 7
  22842465.933 7 120037986.123 7        44.000 7      1088.978 7
  21648750.978 6 115440440.859 6        38.000 6     -2935.934 6
  21269768.318 7 111773392.143 7        44.000 7     -2230.896 7
  25084925.463 4 131822172.941 4        29.000 4     -3134.290 4
  23471552.974 7 123343846.788 7        47.000 7      2823.939 7
  21238969.735 7 111611494.064 7        44.000 7      2535.866 7
  23848012.136 4 125322149.090 4        28.000 4      4112.521 4
 16  6  6 11 10 52.7000000  0 15G12R20G19G32R01R10R21R19G06R09G24G17
                                G02G25G29
  19834131.135 8 104229053.105 8        50.000 8       216.357 8
  19780086.529 7 105773034.337 7        46.000 7      2204.733 7
  22641729.482 8 118983089.845 8        48.000 8     -2818.604 8
  22232697.019 4 116833610.790 4        26.000 4       652.586 4
  22685745.646 6 121268332.262 6        36.000 6     -2363.428 6
  19093056.675 8 101776791.730 8        48.000 8        88.218 8
  22673868.064 7 121332506.287 7        44.000 7      4797.285 7
  20794110.335 7 111234495.202 7        46.000 7     -2247.821 7
  22842425.714 7 120037768.376 7        42.000 7      1087.174 7
  21648860.587 6 115441027.577 6        38.000 6     -2933.855 6
  21269852.725 6 111773838.129 6        41.000 6     -2229.149 6
  25085047.070 5 131822811.425 5        33.000 5     -3144.594 5
  23471447.374 7 123343282.094 7        46.000 7      2823.580 7
  21238874.439 6 111610986.831 6        40.000 6      2534.270 6
  23847855.909 4 125321327.789 4        27.000 4      4099.568 4
 16  6  6 11 10 53.0000000  0 16G12R20R02G19G32R01R10R21R19G06R09G24
                                G17G02G25G29
  19834118.662 8 104228988.287 8        48.000 8       215.458 8
  19779962.925 7 105772372.966 7        46.000 7      2204.615 7
  22690132.150 4 121078892.219 4        28.000 4      1254.479 4
  22641889.662 7 118983932.540 7        45.000 7     -2819.484 7
  22232649.153 4 116833359.259 4        26.000 4       651.070 4
  22685893.732 6 121269123.808 6        38.000 6     -2396.924 6
  19093051.689 7 101776765.591 7        46.000 7        85.117 7
  22673600.059 6 121331066.965 6        41.000 6      4799.649 6
  20794236.330 6 111235190.369 6        41.000 6     -2258.008 6
  22842368.896 7 120037441.969 7        45.000 7      1086.645 7
  21649030.931 7 115441907.726 7        45.000 7     -2933.992 7
  21269978.261 6 111774490.058 6        39.000 6     -2227.499 6
  25085223.129 5 131823736.681 5        33.000 5     -3143.066 5
  23471284.389 7 123342435.067 7        46.000 7      2822.993 7
  21238723.504 7 111610226.700 7        45.000 7      2533.246 7
  23847624.475 4 125320111.805 4        28.000 4      4093.689 4
 16  6  6 11 10 53.2000000  0 16G12R20R02G19G32R01R10R21R19G06R09G24
                                G17G02G25G29
  19834110.334 8 104228945.132 8        51.000 8       216.286 8
  19779880.529 7 105771932.132 7        45.000 7      2204.072 7
  22690088.084 5 121078657.337 5        32.000 5      1253.175 5
  22641996.715 7 118984496.503 7        46.000 7     -2821.608 7
  22232624.427 4 116833229.649 4        26.000 4       663.086 4
  22685983.501 6 121269604.138 6        36.000 6     -2382.568 6
  19093048.308 7 101776748.166 7        46.000 7        85.751 7
  22673422.324 6 121330104.749 6        37.000 6      4813.964 6
  20794320.671 6 111235642.026 6        37.000 6     -2269.158 6
  22842327.339 7 120037224.613 7        45.000 7      1086.495 7
  21649141.404 6 115442725.339 6        41.000 6     -2932.241 6
  21270063.671 6 111774936.082 6        41.000 6     -2228.486 6
  25085343.339 6 131824368.786 6        37.000 6     -3141.016 6
  23471176.037 7 123341870.463 7        46.000 7      2822.818 7
  21238624.609 7 111609719.854 7        44.000 7      2533.849 7
  23847470.311 4 125319293.130 4        27.000 4      4091.202 4
 16  6  6 11 10 53.5000000  0 16G12R20R02G19G32R01R10R21R19G06R09G24
                                G17G02G25G29
  19834098.032 8 104228880.279 8        48.000 8       215.304 8
  19779756.751 7 105771270.912 7        45.000 7      2202.834 7
  22690027.082 5 121078331.325 5        32.000 5      1250.849 5
  22642158.103 7 118985342.739 7        44.000 7     -2821.285 7
  22232585.216 4 116833023.811 4        26.000 4       648.971 4
  22686101.870 4 121270237.246 4        29.000 4     -2349.238 4
  19093043.470 7 101776722.090 7        47.000 7        85.055 7
  22673157.294 6 121328686.439 6        37.000 6      4811.631 6
  20794449.668 6 111236331.871 6        39.000 6     -2260.352 6
  22842263.667 7 120036898.681 7        45.000 7      1087.807 7
  21649303.347 6 115443589.816 6        40.000 6     -2931.250 6
  21270189.326 5 111775605.241 5        35.000 5     -2232.120 5
  25085523.098 5 131825313.101 5        33.000 5     -3142.175 5
  23471016.502 7 123341023.666 7        45.000 7      2822.353 7
  21238482.747 7 111608959.319 7        43.000 7      2535.634 7
  23847237.181 4 125318076.950 4        27.000 4      4117.770 4
 16  6  6 11 10 53.7000000  0 15G12R20R02G19G32R10R21R19G06R09G24G17
                                G02G25G29
  19834089.756 7 104228837.271 7        44.000 7       215.719 7
  19779674.172 7 105770830.228 7        45.000 7      2203.346 7
  22689975.364 5 121078056.070 5        32.000 5      1253.287 5
  22642265.666 7 118985906.967 7        43.000 7     -2818.369 7
  22232554.914 4 116832864.505 4        26.000 4       652.234 4
  19093040.228 8 101776704.838 8        50.000 8        87.173 8
  22672977.492 6 121327724.403 6        39.000 6      4798.725 6
  20794533.276 6 111236779.119 6        41.000 6     -2262.927 6
  22842219.392 7 120036681.716 7        43.000 7      1084.409 7
  21649413.444 6 115444176.265 6        40.000 6     -2946.143 6
  21270273.432 6 111776051.291 6        41.000 6     -2230.171 6
  25085637.362 6 131825913.635 6        38.000 6     -3145.776 6
  23470910.265 7 123340459.280 7        45.000 7      2821.608 7
  21238388.403 6 111608452.409 6        40.000 6      2534.110 6
  23847082.459 4 125317263.728 4        26.000 4      4122.243 4
 16  6  6 11 10 54.0000000  0 15G12R20R02G19G32R10R21R19G06R09G24G17
                                G02G25G29
  19834077.942 6 104228773.183 6        37.000 6       211.440 6
  19779550.506 7 105770169.505 7        44.000 7      2202.109 7
  22689904.425 5 121077676.931 5        32.000 5      1249.619 5
  22642426.880 7 118986753.389 7        44.000 7     -2823.245 7
  22232510.913 4 116832632.985 4        25.000 4       627.003 4
  19093035.538 7 101776679.098 7        46.000 7        86.113 7
  22672709.278 7 121326289.812 7        42.000 7      4799.949 7
  20794659.027 6 111237451.421 6        37.000 6     -2259.520 6
  22842158.909 7 120036356.440 7        44.000 7      1084.747 7
  21649575.256 6 115445039.473 6        41.000 6     -2968.896 6
  21270401.102 6 111776720.635 6        40.000 6     -2229.810 6
  25085816.140 5 131826853.311 5        33.000 5     -3148.714 5
  23470750.046 7 123339612.904 7        46.000 7      2822.032 7
  21238247.213 7 111607691.833 7        42.000 7      2535.325 7
  23846849.385 4 125316038.788 4        26.000 4      4118.367 4
 16  6  6 11 10 54.2000000  0 16G12R20R02G19G32R01R10R21R19G06R09G24
                                G17G02G25G29
  19834070.255 6 104228741.766 6        37.000 6       215.949 6
  19779467.971 7 105769729.044 7        45.000 7      2201.902 7
  22689864.581 5 121077465.007 5        32.000 5      1249.619 5
  22642534.186 6 118987319.741 6        40.000 6     -2822.336 6
  22232487.831 4 116832511.199 4        25.000 4       646.029 4
  22686429.781 4 121271989.856 4        29.000 4     -2391.278 4
  19093032.445 7 101776662.190 7        43.000 7        84.172 7
  22672532.625 6 121325344.405 6        37.000 6      4798.633 6
  20794746.666 5 111237920.655 5        33.000 5     -2260.639 5
  22842118.294 7 120036139.672 7        45.000 7      1083.565 7
  21649684.909 7 115445624.387 7        42.000 7     -2932.324 7
  21270486.652 7 111777161.566 7        42.000 7     -2227.881 7
  25085937.039 6 131827488.742 6        37.000 6     -3143.827 6
  23470640.332 7 123339048.723 7        47.000 7      2821.485 7
  21238150.491 6 111607184.938 6        40.000 6      2534.715 6
  23846692.891 4 125315216.435 4        26.000 4      4124.036 4
 16  6  6 11 10 54.3999998  0 15G12R20R02G19G32R10R21R19G06R09G24G17
                                G02G25G29
  19834062.385 6 104228698.667 6        37.000 6       215.037 6
  19779385.349 7 105769288.666 7        44.000 7      2201.622 7
  22689818.456 4 121077218.082 4        28.000 4      1249.619 4
  22642641.531 6 118987884.345 6        41.000 6     -2824.138 6
  22232458.505 4 116832357.017 4        26.000 4       652.223 4
  19093029.309 6 101776645.152 6        41.000 6        84.987 6
  22672351.487 6 121324374.796 6        41.000 6      4799.683 6
  20794833.154 7 111238383.428 7        44.000 7     -2267.627 7
  22842075.702 7 120035922.895 7        43.000 7      1083.118 7
  21649794.492 6 115446208.617 6        39.000 6     -2927.539 6
  21270571.486 7 111777606.777 7        42.000 7     -2230.815 7
  25086058.105 6 131828117.982 6        38.000 6     -3145.105 6
  23470533.699 7 123338484.492 7        47.000 7      2821.444 7
  21238054.720 6 111606678.047 6        39.000 6      2535.247 6
  23846537.375 4 125314399.378 4        25.000 4      4124.036 4
 16  6  6 11 10 54.6000000  0 16G12R20R02G19G32R01R10R21R19G06R09G24
                                G17G02G25G29
  19834053.861 6 104228655.560 6        41.000 6       214.025 6
  19779302.936 7 105768848.316 7        43.000 7      2200.030 7
  22689769.207 4 121076955.158 4        28.000 4      1249.619 4
  22642748.963 7 118988449.063 7        43.000 7     -2824.458 7
  22232432.016 4 116832217.840 4        26.000 4       647.649 4
  22686605.051 4 121272926.275 4        29.000 4     -2367.596 4
  19093026.155 5 101776628.363 5        35.000 5        84.200 5
  22672175.105 6 121323430.815 6        38.000 6      4797.314 6
  20794919.423 6 111238844.129 6        38.000 6     -2268.506 6
  22842035.453 7 120035706.106 7        44.000 7      1084.334 7
  21649903.673 6 115446790.820 6        39.000 6     -2942.041 6
  21270656.944 7 111778053.112 7        44.000 7     -2231.296 7
  25086179.720 5 131828763.950 5        32.000 5     -3154.980 5
  23470426.689 8 123337920.324 8        48.000 8      2820.763 8
  21237958.102 6 111606171.304 6        39.000 6      2533.891 6
  23846380.702 4 125313576.352 4        26.000 4      4133.148 4
 16  6  6 11 10 54.8000000  0 16G12R20R02G19G32R01R10R21R19G06R09G24
                                G17G02G25G29
  19834045.458 8 104228612.772 8        50.000 8       214.314 8
  19779220.453 7 105768407.883 7        45.000 7      2203.015 7
  22689724.068 4 121076715.234 4        28.000 4      1249.619 4
  22642856.940 7 118989013.617 7        42.000 7     -2821.481 7
  22232404.549 4 116832073.814 4        26.000 4       646.580 4
  22686695.273 4 121273409.412 4        29.000 4     -2371.302 4
  19093023.210 5 101776611.513 5        31.000 5        86.909 5
  22672000.040 6 121322494.321 6        41.000 6      4800.035 6
  20795005.117 6 111239302.787 6        40.000 6     -2267.743 6
  22841994.223 7 120035489.414 7        45.000 7      1084.204 7
  21650013.143 6 115447374.041 6        39.000 6     -2960.449 6
  21270742.533 7 111778499.372 7        43.000 7     -2230.751 7
  25086303.559 5 131829414.604 5        32.000 5     -3152.099 5
  23470318.755 8 123337356.139 8        48.000 8      2821.119 8
  21237860.507 6 111605664.332 6        37.000 6      2536.076 6
  23846224.252 4 125312754.086 4        26.000 4      4127.753 4
 16  6  6 11 10 55.0000000  0 14G12R20R02G19G32R10R21R19G06R09G24G02
                                G25G29
  19834037.383 8 104228570.054 8        52.000 8       213.877 8
  19779138.153 7 105767967.573 7        43.000 7      2200.970 7
  22689675.342 4 121076454.310 4        27.000 4      1249.619 4
  22642964.883 5 118989578.416 5        34.000 5     -2825.553 5
  22232379.988 4 116831945.030 4        26.000 4       652.565 4
  19093020.605 5 101776543.019 5        31.000 5        85.441 5
  22671826.432 7 121321564.822 7        44.000 7      4799.023 7
  20795090.226 6 111239755.985 6        38.000 6     -2264.887 6
  22841952.181 7 120035272.672 7        45.000 7      1083.375 7
  21650123.590 6 115447963.515 6        39.000 6     -2963.330 6
  21270827.646 6 111778953.027 6        36.000 6     -2241.357 6
  23470211.419 7 123336791.865 7        46.000 7      2821.096 7
  21237762.289 6 111605157.490 6        39.000 6      2534.563 6
  23846067.746 4 125311931.131 4        26.000 4      4136.641 4
 16  6  6 11 10 55.2000000  0 15G12R20R02G19G32R01R10R21R19G06R09G24
                                G02G25G29
  19834029.147 7 104228527.160 7        46.000 7       215.963 7
  19779055.828 7 105767527.197 7        43.000 7      2202.225 7
  22689626.669 4 121076195.386 4        27.000 4      1249.619 4
  22643072.883 6 118990150.515 6        40.000 6     -2823.779 6
  22232360.710 4 116831843.915 4        26.000 4       653.165 4
  22686886.824 5 121274433.358 5        33.000 5     -2394.412 5
  19093019.057 4 101776534.663 4        25.000 4        86.692 4
  22671648.505 6 121320612.777 6        38.000 6      4797.696 6
  20795176.225 6 111240218.221 6        38.000 6     -2268.531 6
  22841911.971 6 120035055.878 6        41.000 6      1082.502 6
  21650232.100 6 115448542.072 6        37.000 6     -2974.219 6
  21270912.865 7 111779401.093 7        42.000 7     -2226.611 7
  23470104.733 7 123336227.498 7        47.000 7      2821.801 7
  21237666.492 7 111604650.799 7        44.000 7      2534.070 7
  23845912.365 5 125311114.632 5        31.000 5      4125.927 5
 16  6  6 11 10 55.3999998  0 15G12R20R02G19G32R01R10R21R19G06R09G24
                                G02G25G29
  19834020.897 8 104228484.466 8        52.000 8       212.216 8
  19778973.476 7 105767086.799 7        44.000 7      2202.082 7
  22689576.766 4 121075928.462 4        27.000 4      1249.619 4
  22643180.904 6 118990717.829 6        41.000 6     -2822.868 6
  22232338.540 4 116831726.611 4        26.000 4       629.285 4
  22686978.242 6 121274921.170 6        38.000 6     -2392.841 6
  19093019.401 4 101776536.810 4        25.000 4        79.870 4
  22671471.259 5 121319664.471 5        35.000 5      4800.879 5
  20795261.639 6 111240671.456 6        36.000 6     -2269.184 6
  22841870.645 6 120034839.171 6        40.000 6      1081.578 6
  21650343.724 6 115449136.978 6        41.000 6     -2949.365 6
  21270997.550 6 111779846.284 6        41.000 6     -2229.821 6
  23469996.742 7 123335663.119 7        45.000 7      2822.120 7
  21237568.317 7 111604144.136 7        42.000 7      2532.806 7
  23845755.671 5 125310291.367 5        31.000 5      4128.241 5
 16  6  6 11 10 55.6000000  0 15G12R20R02G19G32R01R10R21R19G06R09G24
                                G02G25G29
  19834012.600 8 104228441.604 8        51.000 8       213.186 8
  19778891.150 7 105766646.539 7        43.000 7      2201.543 7
  22689530.362 4 121075681.538 4        26.000 4      1249.619 4
  22643288.663 6 118991282.406 6        40.000 6     -2823.474 6
  22232327.123 4 116831666.700 4        25.000 4       612.760 4
  22687069.519 6 121275399.903 6        40.000 6     -2392.698 6
  19093018.760 4 101776533.397 4        26.000 4        82.288 4
  22671292.259 6 121318706.961 6        40.000 6      4797.753 6
  20795348.869 5 111241141.387 5        35.000 5     -2267.090 5
  22841830.505 6 120034622.478 6        40.000 6      1084.136 6
  21650454.712 6 115449728.484 6        39.000 6     -2937.744 6
  21271082.659 7 111780292.588 7        45.000 7     -2230.955 7
  23469889.489 7 123335098.711 7        46.000 7      2822.133 7
  21237471.813 7 111603637.549 7        44.000 7      2532.059 7
  23845599.997 4 125309473.076 4        25.000 4      4122.188 4
 16  6  6 11 10 55.8000000  0 15G12R20R02G19G32R01R10R21R19G06R09G24
                                G02G25G29
  19834004.263 7 104228398.879 7        47.000 7       215.703 7
  19778808.859 6 105766206.262 6        41.000 6      2201.370 6
  22689484.856 4 121075438.613 4        26.000 4      1249.619 4
  22643396.510 5 118991850.845 5        33.000 5     -2823.438 5
  22232304.878 4 116831550.036 4        25.000 4       640.418 4
  22687165.247 6 121275878.570 6        41.000 6     -2394.279 6
  19093016.592 5 101776522.418 5        31.000 5        83.203 5
  22671112.814 6 121317746.312 6        38.000 6      4797.998 6
  20795439.309 5 111241625.527 5        33.000 5     -2244.922 5
  22841788.441 5 120034405.889 5        33.000 5      1082.912 5
  21650565.255 6 115450318.880 6        36.000 6     -2959.717 6
  21271167.895 7 111780738.947 7        46.000 7     -2231.427 7
  23469783.121 7 123334534.288 7        46.000 7      2822.421 7
  21237373.358 6 111603131.060 6        39.000 6      2533.539 6
  23845445.916 4 125308663.804 4        26.000 4      4126.715 4
 16  6  6 11 10 56.0000000  0 15G12R20R02G19G32R01R10R21R19G06R09G24
                                G02G25G29
  19833996.087 8 104228356.300 8        48.000 8       215.128 8
  19778726.359 7 105765765.977 7        42.000 7      2200.653 7
  22689442.543 4 121075212.689 4        26.000 4      1249.619 4
  22643504.387 6 118992418.258 6        36.000 6     -2812.158 6
  22232282.690 5 116831433.995 5        30.000 5       621.128 5
  22687259.439 6 121276357.226 6        40.000 6     -2393.598 6
  19093014.371 5 101776510.523 5        33.000 5        87.687 5
  22670934.817 5 121316794.189 5        32.000 5      4803.223 5
  20795528.571 5 111242103.517 5        33.000 5     -2256.592 5
  22841751.573 5 120034214.574 5        33.000 5      1090.246 5
  21650676.347 5 115450910.648 5        34.000 5     -2981.396 5
  21271253.323 7 111781185.298 7        42.000 7     -2231.542 7
  23469675.357 8 123333969.900 8        48.000 8      2822.322 8
  21237279.254 7 111602624.660 7        44.000 7      2531.133 7
  23845291.351 4 125307851.535 4        26.000 4      4119.520 4
 16  6  6 11 10 56.2000000  0 15G12R20R02G19G32R01R10R21R19G06R09G24
                                G02G25G29
  19833988.108 8 104228313.654 8        50.000 8       213.760 8
  19778644.051 6 105765325.590 6        38.000 6      2202.391 6
  22689394.115 4 121074953.765 4        26.000 4      1249.619 4
  22643611.972 6 118992983.364 6        36.000 6     -2820.620 6
  22232256.515 5 116831296.297 5        30.000 5       626.644 5
  22687354.416 6 121276835.762 6        38.000 6     -2393.259 6
  19093009.804 6 101776493.888 6        38.000 6        83.655 6
  22670757.283 6 121315843.899 6        37.000 6      4795.094 6
  20795613.156 5 111242555.118 5        34.000 5     -2237.500 5
  22841732.692 6 120034114.909 6        39.000 6      1117.139 6
  21650787.501 6 115451503.379 6        39.000 6     -2976.611 6
  21271338.458 6 111781631.406 6        39.000 6     -2230.920 6
  23469567.441 7 123333405.400 7        47.000 7      2822.467 7
  21237182.252 7 111602118.184 7        45.000 7      2532.061 7
  23845135.149 4 125307030.197 4        26.000 4      4123.914 4
 16  6  6 11 10 56.3999998  0 15G12R20R02G19G32R01R10R21R19G06R09G24
                                G02G25G29
  19833980.046 8 104228270.980 8        49.000 8       213.691 8
  19778561.786 5 105764885.200 5        31.000 5      2200.455 5
  22689347.475 4 121074704.841 4        26.000 4      1249.619 4
  22643719.858 6 118993550.475 6        36.000 6     -2815.771 6
  22232230.401 4 116831158.617 4        29.000 4       627.739 4
  22687447.727 5 121277314.172 5        32.000 5     -2396.124 5
  19093005.472 5 101776477.100 5        35.000 5        84.283 5
  22670581.311 5 121314902.481 5        34.000 5      4803.027 5
  20795698.588 5 111243012.450 5        33.000 5     -2252.149 5
  22841685.851 6 120033868.540 6        38.000 6      1084.033 6
  21650898.183 6 115452093.738 6        37.000 6     -2939.746 6
  21271423.663 7 111782077.595 7        42.000 7     -2230.394 7
  23469460.144 7 123332840.805 7        47.000 7      2822.800 7
  21237084.562 7 111601611.796 7        43.000 7      2533.002 7
  23844978.782 4 125306209.084 4        26.000 4      4127.946 4
 16  6  6 11 10 56.6000000  0 15G12R20R02G19G32R01R10R21R19G06R09G24
                                G02G25G29
  19833971.784 8 104228228.242 8        49.000 8       214.205 8
  19778480.350 5 105764444.702 5        32.000 5      2203.534 5
  22689292.703 4 121074412.917 4        26.000 4      1249.619 4
  22643828.289 6 118994120.301 6        38.000 6     -2822.179 6
  22232205.202 4 116831025.964 4        29.000 4       642.638 4
  22687541.011 5 121277929.728 5        32.000 5     -2391.518 5
  19093001.785 4 101776443.301 4        28.000 4        86.091 4
  22670406.673 5 121313967.628 5        31.000 5      4817.188 5
  20795784.177 4 111243470.673 4        28.000 4     -2261.342 4
  22841637.314 6 120033613.564 6        37.000 6      1076.953 6
  21651008.272 6 115452681.226 6        39.000 6     -2935.986 6
  21271508.763 5 111782532.905 5        33.000 5     -2218.789 5
  23469353.296 7 123332276.097 7        47.000 7      2823.807 7
  21236989.925 7 111601105.499 7        43.000 7      2531.777 7
  23844822.245 4 125305385.712 4        27.000 4      4124.688 4
 16  6  6 11 10 56.8000000  0 14G12R20R02G19G32R10R21R19G06R09G24G02
                                G25G29
  19833963.678 8 104228185.664 8        49.000 8       213.397 8
  19778400.651 4 105764012.290 4        26.000 4      2211.927 4
  22689245.234 4 121074159.993 4        26.000 4      1249.619 4
  22643944.626 6 118994731.507 6        38.000 6     -2820.045 6
  22232186.644 3 116830928.508 3        21.000 3       634.720 3
  19093000.333 5 101776435.372 5        32.000 5        84.161 5
  22670225.562 4 121312998.278 4        24.000 4      4831.760 4
  20795872.925 5 111243945.271 5        32.000 5     -2263.321 5
  22841595.490 6 120033394.329 6        40.000 6      1085.205 6
  21651118.632 6 115453269.280 6        37.000 6     -2966.357 6
  21271596.350 6 111782992.962 6        39.000 6     -2226.685 6
  23469246.038 7 123331711.305 7        46.000 7      2824.840 7
  21236894.577 7 111600599.294 7        44.000 7      2530.980 7
  23844666.982 5 125304569.978 5        32.000 5      4115.564 5
 16  6  6 11 10 57.0000000  0 14G12R20R02G19G32R10R21R19G06R09G24G02
                                G25G29
  19833955.651 8 104228143.117 8        50.000 8       212.581 8
  19778323.874 5 105763601.526 5        32.000 5      2202.285 5
  22689199.458 4 121073915.069 4        26.000 4      1249.619 4
  22644055.064 6 118995312.358 6        36.000 6     -2823.023 6
  22232166.816 3 116830824.517 3        21.000 3       652.303 3
  19092995.678 4 101776410.746 4        28.000 4        85.346 4
  22670047.382 5 121312045.154 5        30.000 5      4800.236 5
  20795960.651 5 111244414.591 5        32.000 5     -2248.626 5
  22841549.343 6 120033151.369 6        41.000 6      1088.965 6
  21651229.916 6 115453862.598 6        37.000 6     -2983.252 6
  21271683.257 6 111783449.502 6        41.000 6     -2230.120 6
  23469138.523 7 123331146.428 7        47.000 7      2824.528 7
  21236798.356 7 111600093.127 7        46.000 7      2530.317 7
  23844521.801 5 125303806.813 5        31.000 5      4116.315 5
 16  6  6 11 10 57.2000000  0 14G12R20R02G19G32R10R21R19G06R09G24G02
                                G25G29
  19833947.462 8 104228100.526 8        49.000 8       212.701 8
  19778242.490 5 105763166.152 5        31.000 5      2201.825 5
  22689150.313 4 121073653.144 4        27.000 4      1249.619 4
  22644165.620 6 118995892.715 6        39.000 6     -2825.289 6
  22232141.112 3 116830689.999 3        21.000 3       640.946 3
  19092993.736 5 101776399.834 5        33.000 5        84.360 5
  22669865.756 5 121311073.324 5        30.000 5      4804.569 5
  20796049.416 5 111244889.613 5        33.000 5     -2250.563 5
  22841509.910 6 120032944.396 6        40.000 6      1086.345 6
  21651341.235 5 115454456.034 5        35.000 5     -2970.361 5
  21271767.589 6 111783892.673 6        40.000 6     -2230.163 6
  23469031.156 8 123330581.420 8        48.000 8      2825.388 8
  21236701.185 7 111599587.046 7        42.000 7      2531.146 7
  23844358.785 4 125302950.321 4        27.000 4      4114.335 4
 16  6  6 11 10 57.3999998  0 14G12R20R02G19G32R10R21R19G06R09G24G02
                                G25G29
  19833939.413 8 104228057.969 8        50.000 8       212.622 8
  19778165.496 5 105762754.462 5        35.000 5      2203.403 5
  22689103.638 4 121073404.220 4        27.000 4      1249.619 4
  22644282.414 6 118996506.362 6        38.000 6     -2809.814 6
  22232121.407 3 116830585.991 3        22.000 3       632.237 3
  19092990.242 6 101776382.931 6        38.000 6        83.382 6
  22669687.445 5 121310119.496 5        31.000 5      4798.668 5
  20796136.646 5 111245355.809 5        33.000 5     -2249.714 5
  22841469.346 7 120032727.174 7        43.000 7      1087.062 7
  21651452.153 6 115455047.279 6        37.000 6     -2961.865 6
  21271863.404 6 111784396.263 6        38.000 6     -2218.848 6
  23468923.515 8 123330016.282 8        48.000 8      2825.845 8
  21236605.623 7 111599081.149 7        42.000 7      2528.420 7
  23844195.128 5 125302090.761 5        32.000 5      4117.285 5
 16  6  6 11 10 57.6000000  0 16G12R20R02G19G32R01R10R21R19G14G06R09
                                G24G02G25G29
  19833931.312 8 104228015.387 8        51.000 8       212.759 8
  19778088.327 5 105762342.261 5        35.000 5      2203.035 5
  22689051.458 4 121073125.296 4        27.000 4      1249.619 4
  22644395.928 6 118997103.476 6        40.000 6     -2807.519 6
  22232103.119 3 116830489.824 3        22.000 3       625.367 3
  22687790.972 5 121279266.449 5        33.000 5     -2361.372 5
  19092988.222 5 101776366.067 5        35.000 5        84.355 5
  22669509.824 5 121309168.403 5        31.000 5      4788.707 5
  20796224.276 5 111245824.117 5        33.000 5     -2254.926 5
  22644107.624 5 118995588.537 5        30.000 5      1594.347 5
  22841426.039 6 120032509.997 6        38.000 6      1085.219 6
  21651563.098 6 115455638.986 6        37.000 6     -2968.792 6
  21271955.406 5 111784879.553 5        32.000 5     -2225.684 5
  23468815.895 7 123329451.047 7        46.000 7      2826.261 7
  21236508.962 6 111598575.244 6        41.000 6      2529.241 6
  23844034.167 5 125301244.901 5        32.000 5      4116.296 5
 16  6  6 11 10 57.8000000  0 16G12R20R02G19G32R01R10R21R19G14G06R09
                                G24G02G25G29
  19833923.255 8 104227972.891 8        51.000 8       211.946 8
  19778010.826 5 105761927.729 5        35.000 5      2204.717 5
  22689003.247 4 121072868.372 4        26.000 4      1249.619 4
  22644514.039 6 118997723.591 6        36.000 6     -2810.516 6
  22232078.732 3 116830361.496 3        23.000 3       635.830 3
  22687895.128 6 121279823.116 6        36.000 6     -2366.404 6
  19092983.681 5 101776349.305 5        32.000 5        83.147 5
  22669331.208 5 121308212.377 5        31.000 5      4778.479 5
  20796303.958 6 111246250.705 6        36.000 6     -2251.827 6
  22644050.086 5 118995285.668 5        30.000 5      1594.347 5
  22841383.443 6 120032279.427 6        39.000 6      1088.562 6
  21651673.850 6 115456232.731 6        39.000 6     -2967.983 6
  21272042.526 5 111785337.159 5        32.000 5     -2211.393 5
  23468708.183 7 123328885.634 7        46.000 7      2826.782 7
  21236412.554 6 111598069.590 6        41.000 6      2528.260 6
  23843854.290 6 125300299.996 6        41.000 6      4115.082 6
 16  6  6 11 10 58.0000000  0 15G12R20R02G19G32R01R10R21R19G06R09G24
                                G02G25G29
  19833915.254 8 104227930.443 8        51.000 8       211.803 8
  19777925.202 4 105761469.948 4        27.000 4      2195.952 4
  22688955.220 4 121072612.448 4        27.000 4      1249.619 4
  22644621.637 6 118998289.519 6        38.000 6     -2809.179 6
  22232051.462 4 116830218.533 4        24.000 4       637.830 4
  22688017.529 6 121280476.798 6        36.000 6     -2371.138 6
  19092984.331 5 101776350.223 5        34.000 5        83.947 5
  22669153.089 5 121307259.199 5        30.000 5      4808.584 5
  20796389.547 6 111246708.226 6        36.000 6     -2252.249 6
  22841346.715 6 120032086.683 6        36.000 6      1092.090 6
  21651785.413 6 115456824.798 6        39.000 6     -2943.564 6
  21272130.022 5 111785797.334 5        35.000 5     -2220.605 5
  23468600.808 7 123328320.030 7        46.000 7      2828.577 7
  21236316.237 5 111597595.034 5        35.000 5      2525.049 5
  23843686.293 7 125299477.110 7        43.000 7      4113.989 7
 16  6  6 11 10 58.2000000  0 15G12R20R02G19G32R01R10R21R19G06R09G24
                                G02G25G29
  19833907.305 8 104227888.000 8        51.000 8       212.517 8
  19777844.255 5 105761036.591 5        32.000 5      2206.721 5
  22688909.418 4 121072367.524 4        27.000 4      1249.619 4
  22644726.352 6 118998839.601 6        38.000 6     -2812.012 6
  22232027.904 4 116830095.005 4        25.000 4       627.598 4
  22688130.165 6 121281079.172 6        36.000 6     -2372.641 6
  19092983.140 5 101776343.794 5        34.000 5        89.014 5
  22668975.930 5 121306312.012 5        30.000 5      4811.549 5
  20796474.761 5 111247164.986 5        33.000 5     -2261.204 5
  22841303.918 7 120031861.890 7        42.000 7      1090.551 7
  21651898.923 6 115457429.867 6        41.000 6     -2942.413 6
  21272219.921 6 111786269.321 6        38.000 6     -2221.973 6
  23468493.092 8 123327754.074 8        48.000 8      2831.177 8
  21236220.680 5 111597092.400 5        35.000 5      2520.140 5
  23843537.285 5 125298653.685 5        34.000 5      4120.246 5
 16  6  6 11 10 58.5000000  0 16G12R20R02G19G32R01R10R21R19G14G06R09
                                G24G02G25G29
  19833895.042 8 104227824.468 8        50.000 8       211.902 8
  19777716.628 5 105760354.651 5        32.000 5      2220.094 5
  22688834.761 4 121071969.638 4        27.000 4      1249.619 4
  22644888.255 5 118999690.220 5        33.000 5     -2812.764 5
  22231989.884 4 116829894.586 4        26.000 4       641.324 4
  22688277.519 6 121281867.195 6        36.000 6     -2377.192 6
  19092977.237 5 101776318.329 5        30.000 5        85.895 5
  22668711.511 5 121304896.297 5        30.000 5      4816.057 5
  20796601.550 6 111247842.982 6        38.000 6     -2254.466 6
  22643858.758 4 118994280.629 4        25.000 4      1594.347 4
  22841240.522 6 120031528.631 6        40.000 6      1091.801 6
  21652075.069 7 115458369.190 7        43.000 7     -2946.075 7
  21272353.236 5 111786970.303 5        34.000 5     -2223.193 5
  23468331.481 8 123326904.625 8        49.000 8      2832.189 8
  21236077.243 5 111596339.080 5        34.000 5      2515.088 5
  23843320.654 7 125297419.610 7        43.000 7      4111.389 7
 16  6  6 11 10 58.7000000  0 16G12R20R02G19G32R01R10R21R19G14G06R09
                                G24G02G25G29
  19833887.255 8 104227782.093 8        52.000 8       212.485 8
  19777635.760 5 105759922.034 5        32.000 5      2235.364 5
  22688788.095 4 121071720.713 4        27.000 4      1249.619 4
  22644996.590 6 119000259.496 6        38.000 6     -2812.577 6
  22231963.299 4 116829755.071 4        26.000 4       637.453 4
  22688365.892 5 121282339.444 5        33.000 5     -2374.274 5
  19092971.256 6 101776301.636 6        36.000 6        83.431 6
  22668539.971 5 121303978.924 5        30.000 5      4803.406 5
  20796686.676 6 111248298.504 6        37.000 6     -2258.547 6
  22643796.369 5 118993952.760 5        30.000 5      1594.347 5
  22841203.501 7 120031310.278 7        43.000 7      1092.879 7
  21652189.818 7 115458958.332 7        42.000 7     -2945.188 7
  21272438.376 5 111787417.736 5        33.000 5     -2211.670 5
  23468223.804 8 123326338.100 8        50.000 8      2833.069 8
  21235981.686 6 111595836.255 6        37.000 6      2527.587 6
  23843159.580 6 125296596.721 6        36.000 6      4117.193 6
 16  6  6 11 10 58.8999998  0 16G12R20R02G19G32R01R10R21R19G14G06R09
                                G24G02G25G29
  19833879.359 8 104227739.815 8        51.000 8       211.595 8
  19777554.603 4 105759488.319 4        27.000 4      2212.541 4
  22688741.594 4 121071471.789 4        27.000 4      1249.619 4
  22645107.896 6 119000844.547 6        36.000 6     -2813.135 6
  22231938.930 4 116829626.721 4        26.000 4       627.636 4
  22688465.249 5 121282870.306 5        33.000 5     -2372.900 5
  19092971.880 6 101776284.897 6        40.000 6        83.653 6
  22668365.718 5 121303046.707 5        30.000 5      4795.166 5
  20796771.820 6 111248749.865 6        37.000 6     -2260.596 6
  22643732.597 4 118993617.892 4        24.000 4      1594.347 4
  22841163.767 6 120031092.026 6        40.000 6      1091.845 6
  21652306.075 7 115459600.947 7        42.000 7     -2949.609 7
  21272516.160 5 111787826.057 5        33.000 5     -2229.199 5
  23468116.028 8 123325771.526 8        49.000 8      2832.992 8
  21235886.229 6 111595331.759 6        37.000 6      2519.086 6
  23843003.339 7 125295827.734 7        43.000 7      4115.350 7
 16  6  6 11 10 59.1000000  0 16G12R20R02G19G32R01R10R21R19G14G06R09
                                G24G02G25G29
  19833871.790 8 104227697.525 8        52.000 8       211.617 8
  19777476.483 4 105759070.768 4        27.000 4      2196.050 4
  22688691.918 4 121071206.865 4        26.000 4      1249.619 4
  22645217.109 5 119001418.170 5        35.000 5     -2814.984 5
  22231915.184 4 116829502.400 4        26.000 4       632.107 4
  22688551.702 5 121283332.630 5        30.000 5     -2382.715 5
  19092967.356 6 101776259.052 6        36.000 6        83.437 6
  22668185.976 5 121302084.265 5        30.000 5      4808.436 5
  20796857.008 6 111249201.493 6        39.000 6     -2257.514 6
  22643669.615 5 118993286.023 5        30.000 5      1594.347 5
  22841123.684 5 120030872.757 5        33.000 5      1098.086 5
  21652414.611 6 115460179.720 6        40.000 6     -2947.533 6
  21272605.300 4 111788294.782 4        29.000 4     -2225.732 4
  23468008.325 7 123325204.895 7        46.000 7      2833.600 7
  21235794.498 6 111594852.710 6        37.000 6      2519.317 6
  23842843.548 6 125295005.567 6        38.000 6      4112.061 6
 16  6  6 11 10 59.3000000  0 16G12R20R02G19G32R01R10R21R19G14G06R09
                                G24G02G25G29
  19833863.858 8 104227655.306 8        50.000 8       211.860 8
  19777393.328 4 105758625.252 4        27.000 4      2203.562 4
  22688643.393 4 121070947.941 4        26.000 4      1249.619 4
  22645315.236 5 119001980.477 5        34.000 5     -2808.474 5
  22231890.060 4 116829369.875 4        27.000 4       629.890 4
  22688638.783 5 121283798.432 5        33.000 5     -2363.721 5
  19092964.568 6 101776242.231 6        40.000 6        84.525 6
  22668017.595 5 121301183.802 5        31.000 5      4807.818 5
  20796941.637 5 111249653.007 5        35.000 5     -2258.716 5
  22643613.682 5 118992992.155 5        30.000 5      1594.347 5
  22841080.220 6 120030686.370 6        36.000 6      1094.912 6
  21652520.652 6 115460769.837 6        36.000 6     -2953.695 6
  21272695.112 5 111788766.958 5        33.000 5     -2216.391 5
  23467900.120 7 123324638.143 7        44.000 7      2834.320 7
  21235691.502 5 111594311.154 5        34.000 5      2516.635 5
  23842684.655 7 125294182.412 7        44.000 7      4114.319 7
 16  6  6 11 10 59.5000000  0 15G12R20G19G32R01R10R21R19G14G06R09G24
                                G02G25G29
  19833855.901 8 104227613.055 8        51.000 8       211.001 8
  19777312.381 4 105758192.790 4        27.000 4      2208.884 4
  22645425.573 6 119002513.835 6        36.000 6     -2814.451 6
  22231873.439 5 116829283.199 5        31.000 5       637.605 5
  22688730.113 3 121284286.509 3        23.000 3     -2366.979 3
  19092960.987 6 101776225.462 6        36.000 6        83.601 6
  22667836.666 5 121300215.499 5        31.000 5      4807.016 5
  20797030.027 5 111250134.929 5        32.000 5     -2262.894 5
  22643551.062 5 118992663.286 5        30.000 5      1594.347 5
  22841031.110 6 120030427.640 6        36.000 6      1092.332 6
  21652622.505 6 115461288.906 6        36.000 6     -2960.867 6
  21272778.079 6 111789202.838 6        36.000 6     -2222.258 6
  23467792.147 7 123324071.190 7        46.000 7      2834.746 7
  21235599.055 5 111593826.161 5        34.000 5      2519.934 5
  23842527.834 6 125293359.045 6        39.000 6      4114.771 6
 16  6  6 11 10 59.7000000  0 14G12R20G19G32R10R21R19G14G06R09G24G02
                                G25G29
  19833848.088 8 104227570.835 8        52.000 8       210.838 8
  19777228.266 4 105757743.416 4        28.000 4      2204.369 4
  22645530.074 6 119003062.899 6        38.000 6     -2814.872 6
  22231850.597 5 116829156.671 5        31.000 5       633.874 5
  19092953.496 6 101776208.597 6        38.000 6        85.065 6
  22667652.143 5 121299228.111 5        34.000 5      4805.553 5
  20797111.498 5 111250570.853 5        32.000 5     -2258.429 5
  22643497.228 4 118992380.585 4        29.000 4      1590.088 4
  22840990.992 6 120030209.017 6        36.000 6      1093.085 6
  21652730.727 6 115461866.080 6        36.000 6     -2958.342 6
  21272873.610 5 111789646.935 5        32.000 5     -2232.262 5
  23467684.370 7 123323504.182 7        47.000 7      2835.454 7
  21235509.444 6 111593354.465 6        36.000 6      2510.699 6
  23842370.184 7 125292535.825 7        44.000 7      4117.816 7
 16  6  6 11 10 59.8999998  0 14G12R20G19G32R10R21R19G14G06R09G24G02
                                G25G29
  19833840.231 8 104227528.664 8        52.000 8       211.179 8
  19777148.296 5 105757315.222 5        32.000 5      2204.620 5
  22645644.019 6 119003662.171 6        38.000 6     -2808.995 6
  22231825.106 4 116829030.299 4        25.000 4       631.615 4
  19092949.967 6 101776191.868 6        38.000 6        85.658 6
  22667468.720 5 121298246.121 5        31.000 5      4808.473 5
  20797197.427 5 111251022.417 5        31.000 5     -2258.529 5
  22643437.448 4 118992066.536 4        29.000 4      1591.103 4
  22840947.397 6 120029990.361 6        41.000 6      1093.854 6
  21652844.079 6 115462470.210 6        36.000 6     -2954.238 6
  21272957.912 5 111790147.616 5        33.000 5     -2235.813 5
  23467576.510 8 123322937.174 8        48.000 8      2835.530 8
  21235414.576 6 111592855.873 6        38.000 6      2532.373 6
  23842215.959 5 125291690.015 5        35.000 5      4117.090 5
 16  6  6 11 11  0.1000000  0 14G12R20G19G32R01R10R21R19G06R09G24G02
                                G25G29
  19833832.500 8 104227486.527 8        52.000 8       210.570 8
  19777061.364 5 105756874.050 5        33.000 5      2206.081 5
  22645758.794 6 119004264.891 6        38.000 6     -2810.131 6
  22231805.100 4 116828923.888 4        25.000 4       628.942 4
  22689011.921 5 121285792.542 5        30.000 5     -2373.632 5
  19092951.725 6 101776175.278 6        39.000 6        81.843 6
  22667299.012 4 121297284.719 4        26.000 4      4806.475 4
  20797281.532 5 111251480.663 5        32.000 5     -2260.578 5
  22840898.999 6 120029771.632 6        36.000 6      1093.710 6
  21652954.028 6 115463062.016 6        36.000 6     -2958.294 6
  21273042.746 4 111790593.319 4        29.000 4     -2221.771 4
  23467468.528 8 123322370.141 8        50.000 8      2835.212 8
  21235322.203 6 111592371.005 6        36.000 6      2515.381 6
  23842059.448 5 125290867.356 5        34.000 5      4116.028 5
 16  6  6 11 11  0.3000000  0 14G12R20G19G32R01R10R21R19G06R09G24G02
                                G25G29
  19833824.613 8 104227444.406 8        52.000 8       210.472 8
  19776977.729 5 105756433.004 5        33.000 5      2204.950 5
  22645869.812 5 119004848.347 5        32.000 5     -2812.603 5
  22231782.406 4 116828804.449 4        25.000 4       636.930 4
  22689099.621 4 121286261.663 4        29.000 4     -2375.055 4
  19092946.878 6 101776158.532 6        38.000 6        85.263 6
  22667119.288 4 121296375.838 4        27.000 4      4803.649 4
  20797364.923 5 111251925.866 5        32.000 5     -2262.876 5
  22840864.077 6 120029552.846 6        38.000 6      1093.957 6
  21653063.175 5 115463638.239 5        33.000 5     -2965.137 5
  21273122.241 5 111791011.881 5        34.000 5     -2224.017 5
  23467360.717 8 123321803.119 8        49.000 8      2835.179 8
  21235224.347 5 111591856.663 5        33.000 5      2518.701 5
  23841907.836 4 125290071.301 4        25.000 4      4112.579 4
 16  6  6 11 11  0.5000000  0 14G12R20G19G32R01R10R21R19G06R09G24G02
                                G25G29
  19833816.219 8 104227402.226 8        50.000 8       210.800 8
  19776895.124 4 105755961.758 4        29.000 4      2208.255 4
  22645970.216 6 119005376.498 6        38.000 6     -2813.656 6
  22231759.899 4 116828685.858 4        26.000 4       627.213 4
  22689185.009 5 121286718.439 5        33.000 5     -2377.053 5
  19092941.429 6 101776141.996 6        36.000 6        83.005 6
  22666942.635 5 121295431.017 5        31.000 5      4806.753 5
  20797451.724 5 111252390.998 5        32.000 5     -2259.333 5
  22840827.580 5 120029333.606 5        31.000 5      1098.714 5
  21653164.059 5 115464176.120 5        33.000 5     -2958.008 5
  21273203.533 5 111791438.834 5        34.000 5     -2220.121 5
  23467252.818 7 123321236.010 7        47.000 7      2835.884 7
  21235131.258 5 111591367.893 5        30.000 5      2517.082 5
  23841758.061 6 125289283.297 6        38.000 6      4114.453 6
 16  6  6 11 11  0.7000000  0 17G12R20R02G19G32R01R10R21R19G14R11G06
                                R09G24G02G25G29
  19833807.913 8 104227360.218 8        48.000 8       211.263 8
  19776811.464 4 105755514.290 4        28.000 4      2203.019 4
  22688298.861 4 121069109.130 4        27.000 4      1250.841 4
  22646071.864 5 119005910.486 5        33.000 5     -2815.104 5
  22231727.882 4 116828517.898 4        27.000 4       625.183 4
  22689271.026 4 121287177.342 4        29.000 4     -2370.519 4
  19092936.164 6 101776125.315 6        40.000 6        82.891 6
  22666751.943 6 121294469.589 6        38.000 6      4808.785 6
  20797534.556 5 111252843.578 5        32.000 5     -2263.013 5
  22643195.654 3 118990795.487 3        23.000 3      1591.945 3
  21017518.462 4 112311246.223 4        25.000 4      3386.510 4
  22840785.246 6 120029135.948 6        40.000 6      1092.916 6
  21653273.450 6 115464759.462 6        39.000 6     -2961.471 6
  21273285.187 5 111791867.621 5        30.000 5     -2219.399 5
  23467144.857 7 123320668.841 7        46.000 7      2836.432 7
  21235041.255 5 111590894.870 5        30.000 5      2512.290 5
  23841590.090 5 125288401.222 5        35.000 5      4116.797 5
 16  6  6 11 11  0.8999998  0 17G12R20R02G19G32R01R10R21R19G14R11G06
                                R09G24G02G25G29
  19833799.585 7 104227318.203 7        47.000 7       209.676 7
  19776724.487 5 105755049.202 5        33.000 5      2206.003 5
  22688252.631 4 121068863.004 4        27.000 4      1248.819 4
  22646183.502 5 119006496.870 5        34.000 5     -2809.607 5
  22231701.389 4 116828379.242 4        27.000 4       626.207 4
  22689367.940 5 121287695.814 5        33.000 5     -2374.809 5
  19092932.224 6 101776108.721 6        40.000 6        81.690 6
  22666557.273 6 121293508.114 6        36.000 6      4805.815 6
  20797615.216 5 111253265.570 5        35.000 5     -2264.307 5
  22643130.220 3 118990452.148 3        23.000 3      1591.800 3
  21017391.909 4 112310569.746 4        25.000 4      3379.307 4
  22840748.984 6 120028917.066 6        38.000 6      1095.803 6
  21653385.668 6 115465358.483 6        36.000 6     -2952.057 6
  21273368.765 5 111792306.773 5        30.000 5     -2217.827 5
  23467037.033 7 123320101.759 7        47.000 7      2834.817 7
  21234944.035 5 111590383.384 5        34.000 5      2514.185 5
  23841436.497 5 125287593.719 5        34.000 5      4101.807 5
 16  6  6 11 11  1.1000000  0 17G12R20R02G19G32R01R10R21R19G14R11G06
                                R09G24G02G25G29
  19833791.113 8 104227276.048 8        49.000 8       210.496 8
  19776639.640 5 105754594.877 5        32.000 5      2211.862 5
  22688205.484 4 121068611.701 4        27.000 4      1253.923 4
  22646283.029 5 119007020.298 5        33.000 5     -2815.933 5
  22231675.318 4 116828241.457 4        27.000 4       624.169 4
  22689457.638 5 121288175.640 5        34.000 5     -2373.732 5
  19092926.392 6 101776092.232 6        36.000 6        82.275 6
  22666373.169 6 121292383.529 6        38.000 6      4808.383 6
  20797707.322 6 111253757.706 6        38.000 6     -2260.004 6
  22643078.318 4 118990179.148 4        24.000 4      1580.327 4
  21017264.160 4 112309886.766 4        25.000 4      3391.508 4
  22840710.532 6 120028698.263 6        36.000 6      1097.734 6
  21653496.490 6 115465949.449 6        40.000 6     -2964.502 6
  21273446.985 5 111792717.830 5        35.000 5     -2220.357 5
  23466929.051 8 123319534.662 8        50.000 8      2835.814 8
  21234846.449 6 111589870.827 6        36.000 6      2523.337 6
  23841275.672 7 125286748.314 7        44.000 7      4117.768 7
 16  6  6 11 11  1.3000000  0 17G12R20R02G19G32R01R10R21R19G14R11G06
                                R09G24G02G25G29
  19833782.772 8 104227234.057 8        50.000 8       210.515 8
  19776555.229 5 105754153.366 5        32.000 5      2211.606 5
  22688155.590 4 121068344.720 4        27.000 4      1255.851 4
  22646388.690 5 119007575.764 5        33.000 5     -2817.108 5
  22231646.817 4 116828092.188 4        27.000 4       632.048 4
  22689538.402 5 121288607.020 5        33.000 5     -2370.145 5
  19092919.006 6 101776075.680 6        40.000 6        82.050 6
  22666186.753 6 121291422.621 6        41.000 6      4802.487 6
  20797795.084 4 111254210.075 4        28.000 4     -2260.279 4
  22643029.820 4 118989924.488 4        24.000 4      1586.556 4
  21017135.391 4 112309198.645 4        25.000 4      3384.474 4
  22840666.580 5 120028512.991 5        30.000 5      1098.291 5
  21653607.635 5 115466541.775 5        34.000 5     -2958.528 5
  21273524.202 5 111793123.756 5        35.000 5     -2217.661 5
  23466821.064 7 123318967.619 7        47.000 7      2835.265 7
  21234750.839 5 111589367.903 5        34.000 5      2510.230 5
  23841115.876 7 125285909.185 7        47.000 7      4115.747 7
 16  6  6 11 11  1.5000000  0 16G12R20R02G19G32R01R10R21R19G14G06R09
                                G24G02G25G29
  19833774.797 8 104227191.962 8        50.000 8       210.192 8
  19776473.287 5 105753706.194 5        32.000 5      2201.920 5
  22688103.697 5 121068068.013 5        32.000 5      1247.852 5
  22646493.937 6 119008138.463 6        38.000 6     -2812.357 6
  22231629.214 4 116827999.664 4        27.000 4       624.262 4
  22689615.833 6 121289021.455 6        36.000 6     -2370.023 6
  19092918.085 7 101776058.993 7        45.000 7        83.209 7
  22666012.159 6 121290461.255 6        37.000 6      4805.809 6
  20797881.894 4 111254691.547 4        28.000 4     -2266.676 4
  22642986.216 4 118989695.596 4        25.000 4      1581.505 4
  22840632.613 4 120028333.607 4        29.000 4      1104.655 4
  21653706.259 5 115467067.655 5        30.000 5     -2962.001 5
  21273610.677 6 111793567.518 6        39.000 6     -2220.265 6
  23466712.943 7 123318400.502 7        45.000 7      2836.712 7
  21234666.581 5 111588925.940 5        30.000 5      2520.176 5
  23840956.717 6 125285085.947 6        41.000 6      4118.274 6
 16  6  6 11 11  1.7000000  0 16G12R20R02G19G32R01R10R21R19G14G06R09
                                G24G02G25G29
  19833766.984 8 104227149.956 8        50.000 8       209.328 8
  19776394.521 5 105753284.096 5        32.000 5      2205.959 5
  22688055.077 5 121067808.583 5        31.000 5      1254.639 5
  22646604.196 5 119008701.335 5        33.000 5     -2813.249 5
  22231606.163 4 116827874.305 4        27.000 4       628.148 4
  22689695.829 6 121289495.318 6        36.000 6     -2372.345 6
  19092912.698 6 101776042.534 6        40.000 6        80.722 6
  22665823.736 5 121289499.806 5        34.000 5      4812.749 5
  20797963.888 5 111255130.759 5        32.000 5     -2264.740 5
  22642934.934 4 118989425.923 4        25.000 4      1583.977 4
  22840602.668 5 120028176.611 5        33.000 5      1100.623 5
  21653813.242 6 115467637.617 6        41.000 6     -2959.994 6
  21273697.749 6 111794011.113 6        39.000 6     -2218.205 6
  23466605.074 7 123317833.600 7        45.000 7      2834.082 7
  21234569.161 6 111588414.093 6        37.000 6      2516.915 6
  23840806.431 7 125284262.698 7        46.000 7      4114.197 7
 16  6  6 11 11  1.8999998  0 16G12R20R02G32R01R10R21R19G14R11G06R09
                                G24G02G25G29
  19833759.035 8 104227107.937 8        50.000 8       209.375 8
  19776309.822 6 105752831.559 6        38.000 6      2208.028 6
  22688001.587 4 121067523.317 4        25.000 4      1249.861 4
  22231584.900 4 116827766.738 4        27.000 4       627.643 4
  22689784.847 5 121289924.013 5        34.000 5     -2377.244 5
  19092911.201 7 101776026.211 7        43.000 7        81.022 7
  22665642.616 6 121288538.303 6        39.000 6      4806.146 6
  20798045.970 5 111255569.591 5        32.000 5     -2255.536 5
  22642856.849 4 118989015.382 4        26.000 4      1597.834 4
  21016754.666 5 112307164.735 5        31.000 5      3379.774 5
  22840573.156 6 120028021.067 6        36.000 6      1098.791 6
  21653923.287 5 115468230.350 5        32.000 5     -2964.044 5
  21273782.710 6 111794454.983 6        37.000 6     -2220.813 6
  23466497.267 7 123317266.842 7        46.000 7      2833.073 7
  21234469.162 5 111587910.662 5        34.000 5      2518.739 5
  23840645.701 7 125283439.418 7        45.000 7      4116.235 7
 16  6  6 11 11  2.1000000  0 17G12R20R02G19G32R01R10R21R19G14R11G06
                                R09G24G02G25G29
  19833751.003 8 104227065.956 8        49.000 8       210.515 8
  19776224.268 6 105752374.398 6        36.000 6      2205.146 6
  22687954.328 4 121067271.069 4        26.000 4      1255.543 4
  22646826.660 6 119009876.572 6        38.000 6     -2818.164 6
  22231563.331 4 116827653.080 4        26.000 4       622.073 4
  22689871.265 5 121290386.919 5        30.000 5     -2374.915 5
  19092909.208 7 101776009.744 7        45.000 7        82.603 7
  22665458.922 6 121287576.635 6        39.000 6      4808.536 6
  20798134.761 6 111256044.840 6        40.000 6     -2259.033 6
  22642783.671 4 118988630.701 4        27.000 4      1589.348 4
  21016625.417 5 112306473.712 5        31.000 5      3386.060 5
  22840537.522 5 120027801.025 5        34.000 5      1104.506 5
  21654037.172 6 115468821.482 6        39.000 6     -2954.529 6
  21273866.680 5 111794923.517 5        31.000 5     -2231.867 5
  23466389.564 7 123316700.120 7        45.000 7      2834.046 7
  21234367.563 5 111587406.227 5        34.000 5      2521.072 5
  23840492.532 7 125282616.203 7        45.000 7      4117.486 7
 16  6  6 11 11  2.3000000  0 17G12R20R02G19G32R01R10R21R19G14R11G06
                                R09G24G02G25G29
  19833742.981 8 104227024.043 8        50.000 8       209.921 8
  19776140.302 5 105751924.894 5        33.000 5      2198.486 5
  22687907.880 4 121067023.435 4        26.000 4      1251.665 4
  22646937.582 6 119010459.630 6        36.000 6     -2810.303 6
  22231536.741 4 116827528.181 4        27.000 4       625.106 4
  22689957.919 5 121290861.104 5        30.000 5     -2368.208 5
  19092906.821 8 101775993.367 8        48.000 8        82.763 8
  22665275.350 6 121286615.122 6        41.000 6      4807.693 6
  20798215.612 5 111256476.879 5        35.000 5     -2262.061 5
  22642717.204 4 118988281.867 4        27.000 4      1586.275 4
  21016487.617 5 112305797.217 5        31.000 5      3382.869 5
  22840501.588 6 120027645.316 6        37.000 6      1094.043 6
  21654150.175 6 115469434.817 6        41.000 6     -2960.938 6
  21273954.150 5 111795382.897 5        31.000 5     -2236.407 5
  23466281.922 6 123316133.586 6        40.000 6      2832.309 6
  21234273.323 5 111586858.930 5        34.000 5      2512.586 5
  23840333.500 7 125281793.118 7        46.000 7      4115.466 7
 16  6  6 11 11  2.5000000  0 17G12R20R02G19G32R01R10R21R19G14R11G06
                                R09G24G02G25G29
  19833734.736 8 104226982.156 8        50.000 8       209.097 8
  19776060.794 5 105751500.490 5        34.000 5      2207.034 5
  22687864.032 4 121066788.926 4        27.000 4      1250.992 4
  22647050.860 6 119011055.062 6        37.000 6     -2816.122 6
  22231519.562 4 116827422.931 4        27.000 4       625.250 4
  22690048.306 5 121291335.608 5        31.000 5     -2375.275 5
  19092899.165 7 101775977.031 7        45.000 7        81.275 7
  22665090.050 6 121285653.600 6        40.000 6      4807.911 6
  20798302.213 6 111256940.443 6        40.000 6     -2263.935 6
  22642650.339 4 118987930.046 4        26.000 4      1587.359 4
  21016360.627 4 112305059.073 4        24.000 4      3378.304 4
  22840462.281 5 120027439.315 5        31.000 5      1101.611 5
  21654266.398 6 115470054.574 6        40.000 6     -2957.097 6
  21274038.595 5 111795827.245 5        31.000 5     -2233.056 5
  23466174.071 6 123315576.809 6        37.000 6      2836.035 6
  21234180.606 5 111586371.941 5        34.000 5      2511.613 5
  23840179.802 7 125280969.938 7        46.000 7      4115.967 7
 16  6  6 11 11  2.7000000  0 17G12R20R02G19G32R01R10R21R19G14R11G06
                                R09G24G02G25G29
  19833726.913 8 104226940.244 8        51.000 8       209.510 8
  19775978.486 5 105751060.273 5        33.000 5      2200.787 5
  22687812.689 5 121066539.047 5        31.000 5      1248.757 5
  22647162.481 6 119011641.341 6        36.000 6     -2807.275 6
  22231497.164 4 116827306.072 4        26.000 4       628.168 4
  22690136.670 5 121291810.109 5        30.000 5     -2372.829 5
  19092893.542 7 101775960.735 7        45.000 7        82.393 7
  22664912.263 6 121284692.228 6        38.000 6      4806.635 6
  20798384.495 6 111257392.315 6        38.000 6     -2258.429 6
  22642589.712 4 118987611.866 4        26.000 4      1593.393 4
  21016225.418 4 112304336.247 4        25.000 4      3387.126 4
  22840414.359 5 120027186.987 5        31.000 5      1098.754 5
  21654377.979 6 115470645.759 6        41.000 6     -2955.533 6
  21274115.006 5 111796228.033 5        34.000 5     -2220.764 5
  23466066.102 5 123315009.106 5        32.000 5      2845.605 5
  21234085.454 5 111585872.073 5        35.000 5      2512.725 5
  23840017.084 7 125280146.896 7        46.000 7      4115.625 7
 16  6  6 11 11  2.8999998  0 17G12R20R02G19G32R01R10R21R19G14R11G06
                                R09G24G02G25G29
  19833718.886 8 104226898.394 8        49.000 8       208.621 8
  19775896.317 6 105750619.521 6        36.000 6      2205.487 6
  22687768.213 5 121066278.450 5        31.000 5      1253.699 5
  22647273.791 5 119012226.050 5        33.000 5     -2819.810 5
  22231478.357 4 116827207.227 4        27.000 4       626.953 4
  22690224.746 5 121292275.519 5        30.000 5     -2382.661 5
  19092895.919 7 101775944.457 7        46.000 7        81.573 7
  22664729.119 6 121283585.565 6        36.000 6      4811.572 6
  20798474.421 5 111257845.169 5        34.000 5     -2263.330 5
  22642524.195 4 118987266.963 4        26.000 4      1593.407 4
  21016097.312 4 112303651.726 4        25.000 4      3382.293 4
  22840371.318 5 120026960.418 5        35.000 5      1092.090 5
  21654483.967 6 115471215.115 6        37.000 6     -2958.398 6
  21274202.113 5 111796686.286 5        34.000 5     -2220.868 5
  23465959.290 5 123314448.201 5        32.000 5      2840.089 5
  21233988.322 5 111585369.833 5        35.000 5      2509.510 5
  23839866.484 7 125279323.769 7        45.000 7      4115.222 7
 16  6  6 11 11  3.1000000  0 17G12R20R02G19G32R01R10R21R19G14R11G06
                                R09G24G02G25G29
  19833710.785 8 104226856.475 8        51.000 8       209.743 8
  19775816.723 5 105750195.269 5        33.000 5      2208.553 5
  22687717.960 5 121066009.953 5        31.000 5      1252.002 5
  22647368.175 6 119012722.851 6        39.000 6     -2811.475 6
  22231455.938 4 116827089.216 4        27.000 4       624.916 4
  22690309.706 4 121292730.488 4        24.000 4     -2364.846 4
  19092894.658 7 101775928.162 7        46.000 7        81.022 7
  22664546.498 6 121282609.075 6        39.000 6      4805.023 6
  20798553.291 5 111258283.140 5        31.000 5     -2274.854 5
  22642458.159 4 118986919.962 4        26.000 4      1594.007 4
  21015964.032 4 112302939.676 4        26.000 4      3381.093 4
  22840336.714 6 120026779.356 6        37.000 6      1102.637 6
  21654601.281 6 115471840.249 6        39.000 6     -2958.620 6
  21274292.016 6 111797158.456 6        37.000 6     -2225.201 6
  23465857.158 5 123313911.348 5        35.000 5      2839.398 5
  21233892.808 5 111584867.506 5        35.000 5      2512.357 5
  23839712.219 8 125278500.835 8        49.000 8      4114.594 8
 16  6  6 11 11  3.3000000  0 17G12R20R02G19G32R01R10R21R19G14R11G06
                                R09G24G02G25G29
  19833702.898 8 104226814.639 8        51.000 8       209.987 8
  19775733.708 4 105749751.231 4        28.000 4      2204.641 4
  22687667.525 4 121065759.935 4        26.000 4      1248.270 4
  22647473.060 6 119013273.899 6        37.000 6     -2821.631 6
  22231429.488 5 116826949.969 5        32.000 5       632.995 5
  22690394.039 5 121293180.867 5        30.000 5     -2363.206 5
  19092889.977 7 101775911.937 7        46.000 7        82.248 7
  22664368.702 5 121281648.312 5        30.000 5      4798.800 5
  20798638.156 6 111258737.565 6        36.000 6     -2259.278 6
  22642402.122 4 118986625.603 4        25.000 4      1591.071 4
  21015831.632 4 112302231.531 4        26.000 4      3387.525 4
  22840292.334 5 120026545.501 5        30.000 5      1100.580 5
  21654703.805 6 115472386.984 6        38.000 6     -2964.307 6
  21274374.163 5 111797590.573 5        30.000 5     -2223.765 5
  23465747.409 6 123313334.402 6        36.000 6      2842.574 6
  21233804.274 5 111584364.247 5        35.000 5      2517.361 5
  23839553.946 7 125277677.995 7        47.000 7      4114.056 7
 16  6  6 11 11  3.5000000  0 17G12R20R02G19G32R01R10R21R19G14R11G06
                                R09G24G02G25G29
  19833694.849 8 104226772.752 8        51.000 8       209.587 8
  19775653.013 4 105749319.862 4        28.000 4      2204.510 4
  22687619.471 5 121065484.157 5        31.000 5      1250.424 5
  22647580.701 5 119013839.532 5        35.000 5     -2821.188 5
  22231401.773 5 116826804.061 5        32.000 5       627.625 5
  22690479.802 5 121293639.681 5        30.000 5     -2346.752 5
  19092887.687 7 101775895.615 7        45.000 7        81.462 7
  22664193.811 5 121280687.029 5        30.000 5      4808.683 5
  20798722.986 5 111259190.783 5        33.000 5     -2269.554 5
  22642340.261 4 118986300.408 4        26.000 4      1589.755 4
  21015702.086 4 112301554.895 4        27.000 4      3380.428 4
  22840240.472 5 120026273.533 5        31.000 5      1089.502 5
  21654808.441 6 115472944.511 6        38.000 6     -2964.697 6
  21274457.580 5 111798028.386 5        30.000 5     -2223.628 5
  23465643.371 6 123312787.587 6        38.000 6      2835.240 6
  21233709.916 5 111583861.688 5        32.000 5      2516.946 5
  23839391.764 7 125276854.919 7        42.000 7      4114.087 7
 16  6  6 11 11  3.7000000  0 17G12R20R02G19G32R01R10R21R19G14R11G06
                                R09G24G02G25G29
  19833686.808 8 104226730.958 8        50.000 8       209.160 8
  19775569.152 4 105748871.095 4        28.000 4      2207.528 4
  22687574.541 5 121065244.654 5        31.000 5      1250.673 5
  22647689.582 5 119014411.753 5        35.000 5     -2819.647 5
  22231378.760 5 116826683.263 5        31.000 5       628.878 5
  22690562.023 5 121294078.946 5        30.000 5     -2347.709 5
  19092885.615 7 101775879.418 7        47.000 7        81.061 7
  22664014.419 6 121279761.716 6        36.000 6      4805.973 6
  20798810.093 5 111259643.315 5        33.000 5     -2262.213 5
  22642275.818 5 118985982.795 5        32.000 5      1586.302 5
  21015576.292 4 112300867.471 4        27.000 4      3381.535 4
  22840207.783 5 120026101.120 5        31.000 5      1080.284 5
  21654920.703 6 115473544.029 6        40.000 6     -2963.281 6
  21274544.246 6 111798483.731 6        39.000 6     -2221.304 6
  23465527.253 6 123312177.270 6        36.000 6      2829.320 6
  21233609.822 5 111583372.547 5        31.000 5      2516.279 5
  23839230.781 7 125276032.073 7        43.000 7      4115.393 7
 16  6  6 11 11  3.8999998  0 16G12R20R02G19G32R10R21R19G14R11G06R09
                                G24G02G25G29
  19833678.803 8 104226689.174 8        50.000 8       208.596 8
  19775484.654 4 105748418.643 4        28.000 4      2204.143 4
  22687528.678 5 121064999.993 5        31.000 5      1248.391 5
  22647799.427 4 119014988.432 4        27.000 4     -2816.006 4
  22231348.436 5 116826557.441 5        31.000 5       630.345 5
  19092883.473 7 101775863.199 7        47.000 7        80.525 7
  22663837.792 5 121278816.484 5        33.000 5      4807.060 5
  20798889.121 4 111260079.914 4        28.000 4     -2258.045 4
  22642209.734 5 118985665.726 5        32.000 5      1586.249 5
  21015448.142 4 112300182.371 4        27.000 4      3380.893 4
  22840170.365 5 120025904.916 5        31.000 5      1110.608 5
  21655035.783 7 115474157.404 7        42.000 7     -2957.518 7
  21274628.710 6 111798927.546 6        37.000 6     -2220.533 6
  23465419.943 7 123311610.558 7        42.000 7      2834.445 7
  21233507.690 5 111582835.086 5        31.000 5      2510.819 5
  23839077.302 7 125275209.251 7        46.000 7      4113.629 7
 16  6  6 11 11  4.1000000  0 17G12R20R02G19G32R01R10R21R19G14R11G06
                                R09G24G02G25G29
  19833670.907 8 104226647.398 8        50.000 8       208.496 8
  19775404.684 4 105747976.611 4        29.000 4      2213.697 4
  22687484.236 4 121064762.704 4        24.000 4      1254.220 4
  22647904.076 5 119015538.498 5        33.000 5     -2819.531 5
  22231322.060 4 116826385.875 4        26.000 4       651.778 4
  22690735.540 5 121295006.877 5        30.000 5     -2374.499 5
  19092881.662 8 101775846.879 8        49.000 8        82.169 8
  22663661.366 6 121277855.566 6        37.000 6      4802.166 6
  20798971.926 4 111260522.325 4        28.000 4     -2269.800 4
  22642145.696 5 118985348.485 5        32.000 5      1587.735 5
  21015321.266 4 112299504.350 4        27.000 4      3382.513 4
  22840123.237 4 120025656.813 4        25.000 4      1087.825 4
  21655154.291 6 115474748.675 6        41.000 6     -2956.922 6
  21274716.785 6 111799390.571 6        41.000 6     -2221.826 6
  23465316.175 6 123311043.959 6        41.000 6      2832.247 6
  21233411.570 5 111582330.815 5        35.000 5      2521.986 5
  23838924.128 7 125274386.405 7        46.000 7      4113.928 7
 16  6  6 11 11  4.3000000  0 17G12R20R02G19G32R01R10R21R19G14R11G06
                                R09G24G02G25G29
  19833663.098 8 104226605.658 8        50.000 8       208.603 8
  19775325.028 5 105747565.421 5        33.000 5      2224.459 5
  22687437.945 4 121064516.070 4        24.000 4      1254.525 4
  22648016.769 5 119016131.295 5        32.000 5     -2815.025 5
  22231295.693 4 116826246.467 4        26.000 4       621.889 4
  22690816.234 4 121295437.991 4        29.000 4     -2378.873 4
  19092879.206 8 101775830.705 8        49.000 8        80.988 8
  22663489.660 5 121276895.491 5        34.000 5      4806.564 5
  20799054.688 6 111260965.013 6        37.000 6     -2269.833 6
  22642081.396 4 118984939.923 4        27.000 4      1583.506 4
  21015194.015 4 112298824.337 4        27.000 4      3384.162 4
  22840080.937 5 120025434.775 5        35.000 5      1099.571 5
  21655263.133 6 115475369.739 6        39.000 6     -2954.541 6
  21274802.043 6 111799838.605 6        39.000 6     -2218.670 6
  23465212.739 6 123310525.117 6        39.000 6      2837.388 6
  21233314.346 5 111581819.098 5        33.000 5      2513.538 5
  23838768.311 7 125273563.675 7        46.000 7      4113.214 7
 16  6  6 11 11  4.5000000  0 17G12R20R02G19G32R01R10R21R19G14R11G06
                                R09G24G02G25G29
  19833655.402 8 104226563.998 8        49.000 8       208.297 8
  19775239.631 5 105747109.346 5        33.000 5      2192.047 5
  22687395.511 5 121064288.746 5        31.000 5      1251.516 5
  22648121.689 6 119016694.174 6        40.000 6     -2815.690 6
  22231272.004 4 116826122.651 4        26.000 4       624.693 4
  22690911.438 5 121295946.410 5        33.000 5     -2383.042 5
  19092876.462 8 101775814.530 8        49.000 8        80.939 8
  22663307.161 5 121275934.698 5        34.000 5      4805.286 5
  20799146.245 5 111261455.217 5        33.000 5     -2263.024 5
  22642020.290 4 118984619.192 4        27.000 4      1581.079 4
  21015064.879 4 112298134.470 4        28.000 4      3376.854 4
  22840043.821 5 120025240.107 5        34.000 5      1099.016 5
  21655383.954 7 115476014.048 7        42.000 7     -2961.382 7
  21274887.536 7 111800282.794 7        42.000 7     -2222.176 7
  23465102.580 6 123309958.601 6        40.000 6      2833.506 6
  21233219.125 6 111581316.437 6        38.000 6      2515.452 6
  23838612.651 7 125272740.975 7        46.000 7      4113.385 7
 16  6  6 11 11  4.7000000  0 17G12R20R02G19G32R01R10R21R19G14R11G06
                                R09G24G02G25G29
  19833647.567 8 104226522.245 8        49.000 8       208.894 8
  19775162.174 5 105746694.370 5        33.000 5      2202.051 5
  22687350.118 5 121064047.421 5        31.000 5      1254.188 5
  22648229.121 5 119017257.030 5        33.000 5     -2814.300 5
  22231246.488 4 116825988.474 4        27.000 4       624.565 4
  22691006.520 5 121296454.895 5        34.000 5     -2376.911 5
  19092874.983 8 101775798.339 8        49.000 8        81.545 8
  22663133.396 5 121274974.535 5        30.000 5      4795.833 5
  20799232.393 6 111261915.940 6        39.000 6     -2265.924 6
  22641961.238 4 118984309.006 4        27.000 4      1587.857 4
  21014938.142 4 112297456.969 4        27.000 4      3371.496 4
  22840002.307 5 120025021.498 5        31.000 5      1096.401 5
  21655497.917 6 115476606.190 6        37.000 6     -2955.418 6
  21274970.459 6 111800727.058 6        38.000 6     -2223.452 6
  23464993.516 7 123309391.816 7        44.000 7      2834.122 7
  21233126.573 6 111580832.577 6        40.000 6      2515.381 6
  23838457.549 7 125271918.228 7        46.000 7      4114.776 7
 16  6  6 11 11  4.8999998  0 17G12R20R02G19G32R01R10R21R19G14R11G06
                                R09G24G02G25G29
  19833639.793 8 104226480.559 8        50.000 8       208.556 8
  19775080.415 5 105746257.750 5        33.000 5      2201.865 5
  22687311.060 5 121063838.206 5        30.000 5      1256.613 5
  22648332.836 5 119017820.363 5        33.000 5     -2818.613 5
  22231220.644 4 116825852.918 4        26.000 4       630.738 4
  22691102.457 5 121296967.435 5        33.000 5     -2381.446 5
  19092870.424 8 101775782.223 8        48.000 8        80.950 8
  22662957.372 6 121274105.124 6        37.000 6      4800.977 6
  20799318.671 7 111262368.664 7        43.000 7     -2266.883 7
  22641900.381 4 118983988.836 4        27.000 4      1583.555 4
  21014811.580 4 112296781.441 4        27.000 4      3385.645 4
  22839965.652 5 120024829.464 5        35.000 5      1090.858 5
  21655606.365 6 115477198.695 6        39.000 6     -2961.837 6
  21275053.352 6 111801170.901 6        39.000 6     -2219.615 6
  23464883.178 7 123308793.029 7        45.000 7      2833.942 7
  21233030.370 6 111580326.814 6        38.000 6      2510.809 6
  23838300.017 7 125271095.535 7        47.000 7      4114.471 7
 16  6  6 11 11  5.1000000  0 17G12R20R02G19G32R01R10R21R19G14R11G06
                                R09G24G02G25G29
  19833631.766 8 104226438.859 8        49.000 8       208.472 8
  19774999.232 4 105745822.926 4        29.000 4      2206.612 4
  22687265.520 5 121063595.151 5        30.000 5      1255.260 5
  22648441.944 4 119018364.951 4        29.000 4     -2809.619 4
  22231192.366 5 116825703.944 5        32.000 5       624.693 5
  22691197.940 6 121297477.856 6        36.000 6     -2386.004 6
  19092867.331 8 101775766.000 8        48.000 8        80.868 8
  22662781.234 6 121273162.155 6        36.000 6      4796.079 6
  20799403.440 7 111262831.405 7        47.000 7     -2266.602 7
  22641840.731 4 118983676.070 4        27.000 4      1586.389 4
  21014678.177 4 112296068.181 4        27.000 4      3385.909 4
  22839927.279 5 120024627.377 5        31.000 5      1090.232 5
  21655716.638 7 115477788.061 7        42.000 7     -2958.711 7
  21275133.771 6 111801615.730 6        36.000 6     -2224.371 6
  23464777.757 7 123308226.253 7        44.000 7      2833.947 7
  21232934.577 6 111579824.365 6        36.000 6      2513.620 6
  23838147.144 7 125270272.878 7        47.000 7      4112.671 7
 16  6  6 11 11  5.3000000  0 17G12R20R02G19G32R01R10R21R19G14R11G06
                                R09G24G02G25G29
  19833623.900 8 104226397.148 8        48.000 8       208.807 8
  19774916.619 4 105745381.442 4        29.000 4      2199.602 4
  22687216.341 4 121063344.507 4        24.000 4      1251.547 4
  22648545.895 4 119018911.113 4        29.000 4     -2814.943 4
  22231164.096 4 116825555.149 4        27.000 4       623.239 4
  22691300.508 5 121297954.482 5        33.000 5     -2384.216 5
  19092863.418 7 101775749.875 7        46.000 7        80.541 7
  22662597.051 6 121272201.275 6        39.000 6      4802.039 6
  20799489.683 7 111263284.118 7        44.000 7     -2262.006 7
  22641785.061 4 118983383.371 4        27.000 4      1584.378 4
  21014552.819 4 112295391.912 4        27.000 4      3381.161 4
  22839875.282 5 120024409.394 5        31.000 5      1087.757 5
  21655822.190 6 115478350.817 6        38.000 6     -2963.818 6
  21275219.373 4 111802031.409 4        28.000 4     -2223.791 4
  23464667.524 7 123307659.488 7        43.000 7      2834.216 7
  21232839.020 5 111579321.371 5        32.000 5      2516.260 5
  23837991.741 7 125269450.088 7        43.000 7      4114.337 7
 16  6  6 11 11  5.5000000  0 16G12R20R02G19G32R10R21R19G14R11G06R09
                                G24G02G25G29
  19833616.257 8 104226355.496 8        48.000 8       208.819 8
  19774832.487 4 105744932.039 4        29.000 4      2201.614 4
  22687165.321 4 121063094.887 4        24.000 4      1247.010 4
  22648653.864 4 119019478.606 4        28.000 4     -2815.934 4
  22231134.880 4 116825401.686 4        27.000 4       622.799 4
  19092858.388 7 101775733.717 7        46.000 7        81.200 7
  22662411.943 6 121271240.103 6        41.000 6      4804.451 6
  20799572.637 6 111263736.939 6        39.000 6     -2259.259 6
  22641724.548 4 118983064.771 4        26.000 4      1585.319 4
  21014421.921 4 112294699.187 4        27.000 4      3383.789 4
  22839826.164 5 120024096.474 5        31.000 5      1088.925 5
  21655930.359 6 115478927.109 6        38.000 6     -2955.664 6
  21275307.191 5 111802493.793 5        33.000 5     -2220.068 5
  23464557.575 6 123307092.763 6        41.000 6      2833.488 6
  21232749.225 4 111578849.648 4        28.000 4      2512.451 4
  23837833.080 7 125268627.452 7        42.000 7      4113.306 7
 16  6  6 11 11  5.7000000  0 17G12R20R02G19G32R01R10R21R19G14R11G06
                                R09G24G02G25G29
  19833608.466 8 104226313.803 8        48.000 8       208.113 8
  19774746.549 4 105744471.863 4        29.000 4      2199.965 4
  22687121.394 3 121062845.089 3        23.000 3      1248.202 3
  22648763.909 4 119020057.299 4        29.000 4     -2811.641 4
  22231109.830 5 116825276.429 5        31.000 5       629.339 5
  22691489.389 5 121299036.602 5        33.000 5     -2384.953 5
  19092854.222 7 101775717.622 7        46.000 7        80.645 7
  22662229.445 5 121270209.812 5        35.000 5      4800.048 5
  20799660.538 7 111264189.967 7        45.000 7     -2265.314 7
  22641665.832 4 118982756.482 4        26.000 4      1588.682 4
  21014292.532 4 112294007.376 4        27.000 4      3383.248 4
  22839779.358 5 120023878.172 5        31.000 5      1093.802 5
  21656038.119 6 115479502.425 6        36.000 6     -2962.256 6
  21275393.186 4 111802938.513 4        28.000 4     -2226.707 4
  23464451.565 6 123306526.025 6        41.000 6      2833.146 6
  21232653.615 5 111578347.044 5        33.000 5      2511.243 5
  23837675.356 6 125267804.800 6        39.000 6      4113.110 6
 16  6  6 11 11  5.8999998  0 17G12R20R02G19G32R01R10R21R19G14R11G06
                                R09G24G02G25G29
  19833600.513 8 104226272.170 8        48.000 8       208.453 8
  19774662.469 5 105744031.242 5        33.000 5      2204.827 5
  22687076.002 3 121062595.301 3        23.000 3      1249.473 3
  22648872.153 4 119020626.072 4        29.000 4     -2815.983 4
  22231080.715 5 116825116.977 5        31.000 5       623.180 5
  22691582.202 5 121299532.686 5        33.000 5     -2376.008 5
  19092850.553 7 101775701.544 7        45.000 7        80.349 7
  22662043.203 6 121269213.136 6        38.000 6      4807.501 6
  20799742.201 8 111264642.860 8        49.000 8     -2265.003 8
  22641607.029 4 118982447.369 4        26.000 4      1588.640 4
  21014159.356 4 112293296.019 4        27.000 4      3382.172 4
  22839743.005 5 120023658.919 5        35.000 5      1093.626 5
  21656144.220 5 115480068.388 5        33.000 5     -2961.850 5
  21275478.526 4 111803383.142 4        29.000 4     -2222.218 4
  23464343.578 6 123305959.352 6        40.000 6      2833.250 6
  21232555.493 6 111577844.644 6        36.000 6      2513.169 6
  23837516.978 6 125266982.112 6        41.000 6      4112.219 6
 16  6  6 11 11  6.1000000  0 17G12R20R02G19G32R01R10R21R19G14R11G06
                                R09G24G02G25G29
  19833592.752 8 104226230.060 8        49.000 8       208.342 8
  19774585.038 4 105743591.028 4        29.000 4      2199.579 4
  22687024.353 3 121062308.679 3        23.000 3      1247.668 3
  22648981.840 4 119021202.350 4        29.000 4     -2810.394 4
  22231054.553 5 116824979.711 5        32.000 5       623.155 5
  22691672.459 5 121300015.219 5        33.000 5     -2377.478 5
  19092847.582 7 101775685.467 7        47.000 7        80.388 7
  22661867.876 7 121268252.194 7        42.000 7      4803.454 7
  20799828.994 6 111265095.829 6        41.000 6     -2265.076 6
  22641545.020 4 118982121.423 4        26.000 4      1590.454 4
  21014029.409 4 112292601.638 4        27.000 4      3382.882 4
  22839692.884 6 120023395.706 6        37.000 6      1089.230 6
  21656253.987 6 115480652.885 6        36.000 6     -2961.810 6
  21275561.406 5 111803829.539 5        30.000 5     -2228.337 5
  23464233.402 6 123305392.698 6        40.000 6      2833.272 6
  21232458.740 4 111577342.597 4        29.000 4      2509.638 4
  23837360.044 5 125266159.347 5        35.000 5      4114.185 5
 16  6  6 11 11  6.3000000  0 17G12R20R02G19G32R01R10R21R19G14R11G06
                                R09G24G02G25G29
  19833584.764 8 104226188.513 8        50.000 8       207.316 8
  19774506.080 4 105743150.810 4        29.000 4      2202.659 4
  22686978.141 3 121062062.309 3        23.000 3      1248.020 3
  22649087.432 4 119021765.734 4        29.000 4     -2822.348 4
  22231028.622 5 116824843.769 5        31.000 5       622.607 5
  22691763.397 4 121300501.280 4        28.000 4     -2374.150 4
  19092844.454 7 101775669.453 7        45.000 7        79.656 7
  22661679.985 7 121267290.984 7        44.000 7      4806.646 7
  20799915.499 6 111265548.858 6        38.000 6     -2261.157 6
  22641484.420 4 118981803.137 4        25.000 4      1581.073 4
  21013901.294 4 112291925.348 4        27.000 4      3381.667 4
  22839647.474 5 120023156.713 5        35.000 5      1095.688 5
  21656362.208 6 115481230.213 6        37.000 6     -2959.277 6
  21275646.733 6 111804277.405 6        37.000 6     -2229.019 6
  23464129.512 6 123304826.173 6        40.000 6      2832.457 6
  21232362.158 4 111576815.770 4        29.000 4      2517.802 4
  23837205.692 7 125265336.972 7        44.000 7      4112.005 7
 16  6  6 11 11  6.5000000  0 15G12R20G19G32R01R10R21R19R11G06R09G24
                                G02G25G29
  19833576.938 8 104226146.928 8        50.000 8       206.992 8
  19774424.095 5 105742710.415 5        30.000 5      2199.291 5
  22649197.538 5 119022335.952 5        34.000 5     -2809.886 5
  22231001.905 5 116824703.376 5        31.000 5       624.945 5
  22691853.156 5 121300980.304 5        33.000 5     -2381.657 5
  19092840.916 7 101775653.502 7        46.000 7        79.776 7
  22661488.692 7 121266330.024 7        46.000 7      4805.231 7
  20799994.858 5 111266001.479 5        32.000 5     -2265.021 5
  21013777.838 4 112291249.002 4        28.000 4      3379.653 4
  22839614.319 6 120022982.353 6        37.000 6      1101.314 6
  21656478.248 6 115481849.246 6        40.000 6     -2955.112 6
  21275724.662 5 111804687.535 5        33.000 5     -2225.537 5
  23464024.165 6 123304259.801 6        38.000 6      2831.618 6
  21232260.972 5 111576283.690 5        34.000 5      2516.030 5
  23837049.281 6 125264514.401 6        38.000 6      4112.732 6
 16  6  6 11 11  6.7000000  0 15G12R20G19G32R01R10R21R19R11G06R09G24
                                G02G25G29
  19833569.137 8 104226105.375 8        51.000 8       207.491 8
  19774340.033 5 105742298.523 5        30.000 5      2199.083 5
  22649304.709 5 119022899.496 5        30.000 5     -2812.502 5
  22230979.377 5 116824584.917 5        31.000 5       629.108 5
  22691944.783 5 121301470.802 5        33.000 5     -2380.553 5
  19092838.041 7 101775637.585 7        46.000 7        78.731 7
  22661309.543 7 121265368.987 7        47.000 7      4802.953 7
  20800086.624 5 111266455.928 5        32.000 5     -2274.005 5
  21013653.370 4 112290591.959 4        27.000 4      3382.020 4
  22839573.795 6 120022769.511 6        38.000 6      1082.617 6
  21656586.095 6 115482442.293 6        39.000 6     -2965.976 6
  21275808.013 6 111805125.319 6        36.000 6     -2228.764 6
  23463917.095 6 123303716.543 6        40.000 6      2830.894 6
  21232165.899 6 111575784.134 6        37.000 6      2506.484 6
  23836893.054 6 125263717.809 6        40.000 6      4111.475 6
 16  6  6 11 11  6.8999998  0 15G12R20G19G32R01R10R21R19R11G06R09G24
                                G02G25G29
  19833561.250 8 104226063.872 8        51.000 8       207.385 8
  19774252.498 5 105741830.440 5        30.000 5      2199.683 5
  22649414.004 4 119023473.811 4        29.000 4     -2813.950 4
  22230955.523 5 116824458.820 5        30.000 5       634.747 5
  22692034.830 5 121301951.765 5        33.000 5     -2386.791 5
  19092835.035 7 101775621.728 7        45.000 7        79.810 7
  22661134.295 6 121264408.261 6        39.000 6      4797.350 6
  20800173.208 5 111266908.975 5        33.000 5     -2263.892 5
  21013523.100 4 112289895.725 4        27.000 4      3384.183 4
  22839535.195 4 120022566.828 4        27.000 4      1100.488 4
  21656688.087 6 115483035.558 6        37.000 6     -2968.203 6
  21275887.830 6 111805544.838 6        36.000 6     -2227.545 6
  23463803.067 6 123303150.555 6        37.000 6      2828.995 6
  21232070.246 6 111575282.162 6        37.000 6      2509.715 6
  23836735.902 6 125262892.214 6        37.000 6      4109.363 6
 16  6  6 11 11  7.1000000  0 15G12R20G19G32R01R10R21R19R11G06R09G24
                                G02G25G29
  19833553.192 8 104226022.294 8        51.000 8       207.894 8
  19774170.783 5 105741393.295 5        30.000 5      2195.805 5
  22649521.157 5 119024036.545 5        33.000 5     -2811.251 5
  22230931.786 5 116824334.334 5        30.000 5       629.248 5
  22692121.562 5 121302415.137 5        33.000 5     -2380.078 5
  19092832.047 7 101775605.420 7        46.000 7        79.645 7
  22660948.228 6 121263353.233 6        39.000 6      4804.948 6
  20800255.141 6 111267387.392 6        36.000 6     -2268.390 6
  21013397.803 4 112289226.290 4        27.000 4      3390.133 4
  22839477.238 5 120022262.848 5        35.000 5      1081.298 5
  21656799.511 6 115483561.983 6        38.000 6     -2967.762 6
  21275970.950 6 111805990.305 6        38.000 6     -2229.754 6
  23463699.958 6 123302584.825 6        37.000 6      2827.282 6
  21231965.113 6 111574728.920 6        37.000 6      2514.746 6
  23836579.940 5 125262070.390 5        34.000 5      4103.985 5
 16  6  6 11 11  7.3000000  0 15G12R20G19G32R01R10R21R19R11G06R09G24
                                G02G25G29
  19833545.135 8 104225980.747 8        50.000 8       208.040 8
  19774088.580 5 105740953.520 5        30.000 5      2200.444 5
  22649620.649 5 119024559.035 5        33.000 5     -2816.546 5
  22230908.285 5 116824210.699 5        30.000 5       617.398 5
  22692217.220 5 121302926.483 5        33.000 5     -2393.623 5
  19092829.059 7 101775589.757 7        46.000 7        77.170 7
  22660772.212 6 121262412.072 6        40.000 6      4804.158 6
  20800340.407 6 111267843.119 6        36.000 6     -2267.537 6
  21013273.823 4 112288564.053 4        26.000 4      3390.004 4
  22839437.557 5 120022054.190 5        32.000 5      1085.049 5
  21656918.020 6 115484152.697 6        36.000 6     -2945.821 6
  21276055.993 5 111806428.869 5        33.000 5     -2230.282 5
  23463600.906 5 123302054.694 5        34.000 5      2839.650 5
  21231864.704 5 111574201.912 5        35.000 5      2521.582 5
  23836425.414 5 125261260.469 5        30.000 5      4092.331 5
 16  6  6 11 11  7.5000000  0 15G12R20G19G32R01R10R21R19R11G06R09G24
                                G02G25G29
  19833537.234 8 104225939.168 8        50.000 8       208.990 8
  19774001.298 6 105740486.541 6        37.000 6      2195.132 6
  22649729.019 5 119025128.748 5        33.000 5     -2817.309 5
  22230884.679 5 116824087.005 5        30.000 5       622.064 5
  22692320.102 5 121303476.863 5        32.000 5     -2393.396 5
  19092826.158 7 101775573.912 7        45.000 7        79.548 7
  22660595.969 6 121261451.626 6        39.000 6      4800.645 6
  20800422.140 6 111268280.666 6        36.000 6     -2270.557 6
  21013146.563 4 112287884.152 4        26.000 4      3404.640 4
  22839395.436 6 120021832.140 6        38.000 6      1103.271 6
  21657031.389 6 115484798.581 6        37.000 6     -2966.797 6
  21276144.846 5 111806894.991 5        35.000 5     -2222.754 5
  23463495.428 5 123301499.792 5        34.000 5      2837.860 5
  21231763.838 6 111573671.874 6        40.000 6      2527.413 6
  23836271.848 5 125260453.246 5        30.000 5      4117.951 5
 16  6  6 11 11  7.7000000  0 14G12R20G19G32R01R10R21R19G06R09G24G02
                                G25G29
  19833529.268 8 104225897.642 8        50.000 8       207.345 8
  19773915.761 6 105740047.699 6        41.000 6      2194.113 6
  22649829.707 5 119025658.020 5        33.000 5     -2817.648 5
  22230859.769 5 116823955.584 5        30.000 5       618.638 5
  22692419.128 5 121304006.408 5        32.000 5     -2393.882 5
  19092823.021 6 101775558.340 6        40.000 6        77.111 6
  22660416.812 5 121260492.857 5        34.000 5      4800.956 5
  20800507.659 6 111268738.066 6        38.000 6     -2273.651 6
  22839362.150 6 120021657.655 6        36.000 6      1077.197 6
  21657144.934 5 115485404.395 5        34.000 5     -2960.751 5
  21276227.581 6 111807329.765 6        38.000 6     -2221.697 6
  23463401.550 6 123301006.941 6        37.000 6      2848.539 6
  21231663.420 7 111573166.930 7        42.000 7      2524.813 7
  23836117.614 5 125259643.136 5        30.000 5      4106.080 5
 16  6  6 11 11  7.8999998  0 15G12R20R02G19G32R01R10R21R19G06R09G24
                                G02G25G29
  19833521.158 8 104225856.078 8        49.000 8       207.909 8
  19773831.289 6 105739608.984 6        41.000 6      2193.158 6
  22686601.757 4 121060053.810 4        25.000 4      1260.421 4
  22649934.880 5 119026211.071 5        33.000 5     -2818.259 5
  22230838.013 4 116823841.989 4        29.000 4       620.508 4
  22692511.060 5 121304497.173 5        32.000 5     -2395.707 5
  19092820.129 7 101775542.640 7        43.000 7        79.029 7
  22660235.596 6 121259540.770 6        39.000 6      4798.242 6
  20800594.147 6 111269192.592 6        40.000 6     -2276.752 6
  22839331.333 6 120021495.997 6        41.000 6      1093.652 6
  21657255.729 5 115485994.515 5        34.000 5     -2960.888 5
  21276313.310 6 111807780.848 6        38.000 6     -2237.500 6
  23463289.738 5 123300419.256 5        35.000 5      2843.494 5
  21231568.408 7 111572661.684 7        43.000 7      2528.025 7
  23835963.149 4 125258831.257 4        25.000 4      4106.122 4
 16  6  6 11 11  8.2000000  0 16G12R20R02G19G32R01R10R21R19G14G06R09
                                G24G02G25G29
  19833509.069 8 104225793.738 8        50.000 8       207.768 8
  19773707.214 7 105738951.006 7        44.000 7      2193.826 7
  22686527.179 4 121059655.500 4        26.000 4      1244.751 4
  22650095.112 5 119027052.603 5        34.000 5     -2813.380 5
  22230799.286 5 116823637.942 5        30.000 5       609.198 5
  22692649.418 5 121305236.947 5        32.000 5     -2397.512 5
  19092815.701 7 101775519.376 7        45.000 7        77.589 7
  22659962.173 6 121258077.339 6        40.000 6      4794.939 6
  20800715.875 6 111269875.310 6        38.000 6     -2279.071 6
  22640903.690 5 118978751.583 5        30.000 5      1577.174 5
  22839277.756 6 120021213.942 6        37.000 6      1105.811 6
  21657424.120 6 115486893.277 6        37.000 6     -2970.898 6
  21276438.729 6 111808439.990 6        40.000 6     -2227.381 6
  23463125.536 6 123299556.546 6        40.000 6      2831.213 6
  21231418.040 7 111571903.773 7        43.000 7      2527.490 7
  23835731.040 5 125257611.758 5        31.000 5      4113.833 5
 16  6  6 11 11  8.3999998  0 16G12R20R02G19G32R01R10R21R19G14G06R09
                                G24G02G25G29
  19833501.287 8 104225752.246 8        51.000 8       207.327 8
  19773625.185 7 105738512.554 7        43.000 7      2191.372 7
  22686477.756 4 121059391.342 4        26.000 4      1233.825 4
  22650199.512 5 119027601.537 5        33.000 5     -2803.226 5
  22230774.874 5 116823510.439 5        30.000 5       621.606 5
  22692748.627 5 121305767.231 5        32.000 5     -2397.193 5
  19092812.712 7 101775503.950 7        45.000 7        76.739 7
  22659788.033 7 121257118.089 7        42.000 7      4796.863 7
  20800805.111 6 111270330.277 6        40.000 6     -2273.834 6
  22640840.982 5 118978436.238 5        30.000 5      1574.622 5
  22839224.616 5 120020934.859 5        35.000 5      1078.955 5
  21657534.680 6 115487482.014 6        37.000 6     -2970.605 6
  21276522.752 7 111808881.227 7        43.000 7     -2222.314 7
  23463013.305 6 123298966.742 6        36.000 6      2832.178 6
  21231319.555 7 111571398.490 7        45.000 7      2526.534 7
  23835575.973 4 125256796.615 4        24.000 4      4120.447 4
 16  6  6 11 11  8.6000000  0 17G12R20R02G19G32R01R10R21R19G14R11G06
                                R09G24G02G25G29
  19833493.238 8 104225710.744 8        51.000 8       207.828 8
  19773543.182 7 105738073.985 7        42.000 7      2192.524 7
  22686431.011 5 121059142.049 5        35.000 5      1237.898 5
  22650307.957 5 119028171.130 5        33.000 5     -2807.751 5
  22230754.007 6 116823400.215 6        37.000 6       613.232 6
  22692843.177 5 121306272.976 5        35.000 5     -2402.002 5
  19092809.829 7 101775488.432 7        45.000 7        77.256 7
  22659610.106 7 121256158.731 7        44.000 7      4795.790 7
  20800886.556 6 111270785.477 6        40.000 6     -2275.269 6
  22640780.016 5 118978121.119 5        30.000 5      1574.071 5
  21012452.773 4 112284176.022 4        26.000 4      3371.533 4
  22839187.185 5 120020738.132 5        35.000 5      1075.146 5
  21657646.706 6 115488080.226 6        39.000 6     -2974.314 6
  21276612.263 7 111809351.906 7        45.000 7     -2234.912 7
  23462912.499 6 123298436.484 6        36.000 6      2837.640 6
  21231228.155 8 111570893.259 8        49.000 8      2526.318 8
  23835421.346 4 125255984.557 4        25.000 4      4121.991 4
 16  6  6 11 11  8.8000000  0 16G12R20R02G19G32R01R10R21R19R11G06R09
                                G24G02G25G29
  19833485.385 8 104225669.270 8        51.000 8       207.365 8
  19773460.106 7 105737635.480 7        42.000 7      2192.853 7
  22686382.530 5 121058883.868 5        31.000 5      1242.537 5
  22650414.621 5 119028731.633 5        34.000 5     -2805.224 5
  22230726.707 6 116823256.840 6        40.000 6       608.427 6
  22692940.841 5 121306794.905 5        33.000 5     -2393.506 5
  19092806.954 7 101775472.963 7        46.000 7        77.753 7
  22659426.900 6 121255199.445 6        41.000 6      4798.703 6
  20800970.591 6 111271240.449 6        41.000 6     -2276.337 6
  21012326.891 4 112283503.601 4        26.000 4      3369.488 4
  22839152.869 6 120020558.329 6        37.000 6      1095.898 6
  21657755.922 6 115488662.601 6        38.000 6     -2969.727 6
  21276695.112 6 111809787.439 6        40.000 6     -2225.597 6
  23462807.719 6 123297886.197 6        36.000 6      2826.025 6
  21231132.135 8 111570388.013 8        50.000 8      2526.745 8
  23835266.266 4 125255159.700 4        25.000 4      4124.390 4
 16  6  6 11 11  9.0000000  0 16G12R20R02G19G32R01R10R21R19R11G06R09
                                G24G02G25G29
  19833477.650 8 104225627.848 8        51.000 8       206.726 8
  19773376.960 7 105737197.137 7        43.000 7      2191.490 7
  22686336.396 4 121058637.310 4        26.000 4      1234.987 4
  22650526.634 5 119029320.432 5        34.000 5     -2810.010 5
  22230706.207 6 116823134.970 6        39.000 6       609.304 6
  22693033.925 6 121307293.033 6        36.000 6     -2400.539 6
  19092804.096 7 101775457.648 7        43.000 7        76.837 7
  22659247.473 5 121254240.616 5        33.000 5      4793.905 5
  20801052.568 5 111271695.572 5        34.000 5     -2278.705 5
  21012198.174 4 112282816.200 4        25.000 4      3371.192 4
  22839115.779 7 120020362.618 7        42.000 7      1106.494 7
  21657868.891 6 115489264.614 6        38.000 6     -2973.828 6
  21276776.844 6 111810216.026 6        38.000 6     -2234.619 6
  23462705.928 6 123297351.381 6        38.000 6      2821.995 6
  21231034.488 8 111569882.726 8        49.000 8      2526.792 8
  23835110.846 4 125254352.792 4        26.000 4      4120.920 4
 16  6  6 11 11  9.2000000  0 17G12R20R02G19G32R01R10R21R19G14R11G06
                                R09G24G17G02G25
  19833469.872 8 104225586.450 8        52.000 8       206.934 8
  19773294.721 7 105736708.831 7        44.000 7      2191.865 7
  22686290.218 4 121058391.584 4        26.000 4      1240.731 4
  22650629.595 5 119029861.650 5        34.000 5     -2809.082 5
  22230683.888 6 116823031.730 6        36.000 6       614.003 6
  22693131.546 6 121307814.818 6        36.000 6     -2398.681 6
  19092801.204 7 101775442.350 7        43.000 7        76.425 7
  22659069.843 5 121253301.745 5        33.000 5      4786.805 5
  20801137.983 5 111272109.838 5        31.000 5     -2265.925 5
  22640602.076 5 118977166.711 5        30.000 5      1571.569 5
  21012068.681 5 112282123.441 5        31.000 5      3370.367 5
  22839078.134 6 120020165.582 6        39.000 6      1084.521 6
  21657979.774 6 115489855.570 6        40.000 6     -2977.617 6
  21276862.207 6 111810664.972 6        36.000 6     -2232.324 6
  25094987.839 3 131875050.530 3        23.000 3     -3138.438 3
  23462606.719 6 123296830.103 6        39.000 6      2833.105 6
  21230938.708 8 111569377.479 8        49.000 8      2526.917 8
 16  6  6 11 11  9.3999998  0 17G12R20R02G19G32R01R10R21R19G14R11G06
                                R09G24G17G02G25
  19833462.037 8 104225545.047 8        52.000 8       206.370 8
  19773211.270 7 105736270.647 7        44.000 7      2190.466 7
  22686244.032 5 121058145.034 5        32.000 5      1235.759 5
  22650735.779 6 119030419.348 6        37.000 6     -2806.006 6
  22230661.849 6 116822915.711 6        38.000 6       609.041 6
  22693222.902 5 121308294.775 5        35.000 5     -2400.217 5
  19092798.460 7 101775427.115 7        42.000 7        75.856 7
  22658895.336 4 121252368.320 4        29.000 4      4803.574 4
  20801222.141 5 111272560.046 5        35.000 5     -2257.422 5
  22640539.975 5 118976839.742 5        30.000 5      1569.051 5
  21011942.023 4 112281447.110 4        25.000 4      3373.526 4
  22839035.517 6 120019941.148 6        37.000 6      1090.746 6
  21658090.526 6 115490450.404 6        36.000 6     -2971.656 6
  21276946.705 7 111811109.046 7        42.000 7     -2238.037 7
  25095107.452 3 131875679.218 3        23.000 3     -3138.438 3
  23462505.708 6 123296299.317 6        37.000 6      2845.166 6
  21230840.765 8 111568872.145 8        48.000 8      2526.685 8
 16  6  6 11 11  9.6000000  0 17G12R20R02G19G32R01R10R21R19G14R11G06
                                R09G24G17G02G25
  19833453.879 8 104225503.632 8        52.000 8       207.830 8
  19773128.490 7 105735832.464 7        44.000 7      2191.045 7
  22686196.921 4 121057893.487 4        27.000 4      1231.951 4
  22650843.146 5 119030983.955 5        35.000 5     -2824.951 5
  22230637.955 7 116822790.035 7        45.000 7       610.546 7
  22693314.712 5 121308794.000 5        32.000 5     -2406.494 5
  19092795.724 6 101775411.892 6        41.000 6        75.352 6
  22658721.231 6 121251436.660 6        36.000 6      4797.423 6
  20801305.932 5 111273007.683 5        34.000 5     -2263.086 5
  22640485.438 5 118976525.648 5        30.000 5      1574.674 5
  21011814.893 4 112280767.876 4        25.000 4      3371.099 4
  22838992.297 6 120019714.107 6        37.000 6      1091.156 6
  21658200.772 6 115491033.885 6        36.000 6     -2978.564 6
  21277033.467 7 111811556.230 7        43.000 7     -2233.655 7
  25095228.395 3 131876314.905 3        23.000 3     -3138.438 3
  23462405.326 6 123295772.122 6        38.000 6      2859.570 6
  21230740.827 7 111568366.859 7        44.000 7      2526.568 7
 16  6  6 11 11  9.8000000  0 16G12R20R02G19G32R01R10R21R19G14G06R09
                                G24G17G02G25
  19833445.655 8 104225462.268 8        52.000 8       207.000 8
  19773047.674 7 105735394.307 7        44.000 7      2191.048 7
  22686151.572 4 121057651.156 4        27.000 4      1235.615 4
  22650953.453 5 119031563.583 5        35.000 5     -2810.400 5
  22230614.288 7 116822665.682 7        46.000 7       607.049 7
  22693398.225 5 121309239.735 5        35.000 5     -2395.504 5
  19092792.797 6 101775396.503 6        37.000 6        78.491 6
  22658546.367 4 121250500.712 4        28.000 4      4817.771 4
  20801389.401 5 111273454.917 5        30.000 5     -2265.016 5
  22640422.757 4 118976224.202 4        29.000 4      1579.294 4
  22838949.993 5 120019491.916 5        34.000 5      1089.102 5
  21658312.353 6 115491629.292 6        36.000 6     -2977.186 6
  21277117.255 6 111812005.409 6        38.000 6     -2225.397 6
  25095347.056 3 131876938.593 3        23.000 3     -3138.438 3
  23462291.856 6 123295175.284 6        37.000 6      2857.031 6
  21230648.136 7 111567861.319 7        45.000 7      2528.255 7
 16  6  6 11 11 10.0000000  0 14G12R20R02G19G32R10R21R19G14G06R09G24
                                G02G25
  19833437.855 8 104225420.885 8        51.000 8       206.229 8
  19772966.230 7 105734956.339 7        44.000 7      2190.079 7
  22686102.480 4 121057389.308 4        27.000 4      1243.442 4
  22651062.670 6 119032137.209 6        38.000 6     -2812.939 6
  22230592.676 7 116822544.461 7        43.000 7       605.344 7
  19092789.966 6 101775381.461 6        37.000 6        72.517 6
  22658367.916 5 121249545.810 5        33.000 5      4790.485 5
  20801474.676 5 111273910.248 5        34.000 5     -2268.708 5
  22640360.761 4 118975898.154 4        29.000 4      1590.845 4
  22838912.130 5 120019292.571 5        34.000 5      1085.303 5
  21658426.220 6 115492236.931 6        36.000 6     -2971.143 6
  21277204.222 6 111812461.895 6        39.000 6     -2238.153 6
  23462185.602 6 123294616.854 6        41.000 6      2858.232 6
  21230551.322 7 111567355.780 7        43.000 7      2529.395 7
 16  6  6 11 11 10.2000000  0 15G12R20R02G19G32R10R21R19G14G06R09G24
                                G02G25G29
  19833430.059 8 104225379.571 8        52.000 8       206.480 8
  19772885.727 7 105734518.436 7        44.000 7      2188.537 7
  22686056.556 4 121057143.866 4        27.000 4      1232.256 4
  22651174.076 5 119032722.836 5        34.000 5     -2832.813 5
  22230566.247 6 116822423.453 6        41.000 6       605.592 6
  19092787.117 6 101775366.233 6        39.000 6        77.195 6
  22658194.405 4 121248617.438 4        29.000 4      4786.564 4
  20801558.267 5 111274357.846 5        34.000 5     -2279.304 5
  22640298.228 4 118975570.041 4        28.000 4      1572.664 4
  22838871.982 5 120019081.600 5        35.000 5      1081.299 5
  21658542.818 5 115492858.479 5        34.000 5     -2954.834 5
  21277293.441 6 111812930.731 6        40.000 6     -2215.039 6
  23462077.633 7 123294045.364 7        42.000 7      2855.729 7
  21230455.337 7 111566850.398 7        45.000 7      2525.555 7
  23834178.053 4 125249450.310 4        27.000 4      4130.969 4
 16  6  6 11 11 10.3999998  0 14G12R20R02G19G32R10R21R19G06R09G24G02
                                G25G29
  19833422.329 8 104225338.163 8        53.000 8       206.790 8
  19772805.740 7 105734080.547 7        43.000 7      2188.971 7
  22686007.752 4 121056883.420 4        27.000 4      1231.959 4
  22651279.698 5 119033277.358 5        31.000 5     -2815.527 5
  22230544.055 7 116822302.493 7        45.000 7       605.490 7
  19092784.382 6 101775351.050 6        41.000 6        78.406 6
  22658017.307 4 121247669.477 4        29.000 4      4786.944 4
  20801642.468 5 111274808.392 5        34.000 5     -2278.717 5
  22838833.936 5 120018881.450 5        35.000 5      1098.047 5
  21658655.647 5 115493459.658 5        34.000 5     -2939.014 5
  21277376.478 7 111813367.939 7        42.000 7     -2239.844 7
  23461967.570 6 123293473.630 6        36.000 6      2856.570 6
  21230359.736 7 111566344.909 7        43.000 7      2526.092 7
  23834021.023 4 125248625.040 4        27.000 4      4129.117 4
 16  6  6 11 11 10.6000000  0 12G12R20G19R10R21R19G06R09G24G02G25G29
  19833414.367 8 104225296.860 8        50.000 8       206.420 8
  19772723.100 7 105733642.746 7        44.000 7      2189.372 7
  22651389.115 5 119033852.919 5        35.000 5     -2810.742 5
  19092781.516 6 101775336.019 6        40.000 6        77.301 6
  22657838.603 4 121246713.308 4        29.000 4      4785.541 4
  20801724.995 5 111275249.762 5        35.000 5     -2266.895 5
  22838785.547 5 120018627.737 5        31.000 5      1083.887 5
  21658768.214 5 115494059.694 5        30.000 5     -2949.170 5
  21277456.967 7 111813815.317 7        44.000 7     -2236.977 7
  23461861.276 5 123292912.868 5        35.000 5      2848.242 5
  21230265.549 6 111565839.264 6        40.000 6      2526.857 6
  23833864.590 4 125247803.136 4        26.000 4      4133.036 4
 16  6  6 11 11 10.8000000  0 12G12R20G19R10R21R19G06R09G24G02G25G29
  19833406.288 7 104225255.674 7        44.000 7       205.781 7
  19772640.992 7 105733204.959 7        44.000 7      2188.912 7
  22651493.084 5 119034399.067 5        32.000 5     -2811.328 5
  19092779.705 6 101775321.076 6        38.000 6        75.883 6
  22657661.820 4 121245767.966 4        28.000 4      4784.017 4
  20801810.758 6 111275708.081 6        37.000 6     -2259.961 6
  22838743.500 5 120018406.818 5        35.000 5      1085.205 5
  21658882.683 5 115494670.626 5        31.000 5     -2945.410 5
  21277541.578 6 111814262.911 6        41.000 6     -2239.261 6
  23461751.357 6 123292334.781 6        38.000 6      2830.811 6
  21230172.037 6 111565333.953 6        40.000 6      2526.193 6
  23833707.949 4 125246980.607 4        27.000 4      4126.863 4
 16  6  6 11 11 11.0000000  0 12G12R20G19R10R21R19G06R09G24G02G25G29
  19833398.775 6 104225214.534 6        41.000 6       205.638 6
  19772559.164 7 105732767.208 7        44.000 7      2188.770 7
  22651587.943 6 119034897.803 6        38.000 6     -2806.037 6
  19092778.200 6 101775250.790 6        39.000 6        77.930 6
  22657485.289 4 121244822.862 4        29.000 4      4782.628 4
  20801893.136 6 111276160.602 6        36.000 6     -2270.002 6
  22838703.906 5 120018198.157 5        32.000 5      1090.430 5
  21658995.372 5 115495271.446 5        34.000 5     -2973.584 5
  21277628.022 6 111814689.397 6        37.000 6     -2238.275 6
  23461643.921 6 123291770.301 6        36.000 6      2844.922 6
  21230077.091 6 111564807.445 6        37.000 6      2526.221 6
  23833551.171 4 125246155.836 4        27.000 4      4111.601 4
 16  6  6 11 11 11.2000000  0 14G12R20G19G32R10R21R19G06R09G24G17G02
                                G25G29
  19833391.363 5 104225174.848 5        30.000 5       208.203 5
  19772476.585 7 105732329.457 7        43.000 7      2188.782 7
  22651692.326 6 119035459.538 6        38.000 6     -2811.071 6
  22230450.108 7 116821802.890 7        44.000 7       604.688 7
  19092775.535 6 101775236.523 6        39.000 6        74.155 6
  22657308.758 4 121243877.769 4        28.000 4      4797.669 4
  20801977.172 5 111276598.890 5        33.000 5     -2279.651 5
  22838661.532 4 120017975.513 4        27.000 4      1099.137 4
  21659109.309 5 115495878.625 5        33.000 5     -2943.115 5
  21277714.440 6 111815136.987 6        37.000 6     -2232.556 6
  25096179.645 3 131881313.406 3        22.000 3     -3138.438 3
  23461536.401 5 123291205.506 5        32.000 5      2834.766 5
  21229983.523 6 111564316.075 6        37.000 6      2528.321 6
  23833393.945 4 125245329.772 4        27.000 4      4125.651 4
 16  6  6 11 11 11.3999998  0 14G12R20G19G32R01R10R21R19G06R09G24G02
                                G25G29
  19833383.528 6 104225133.150 6        36.000 6       206.830 6
  19772396.100 6 105731891.711 6        40.000 6      2188.328 6
  22651798.349 6 119036021.274 6        37.000 6     -2809.479 6
  22230433.953 7 116821717.959 7        44.000 7       605.014 7
  22693980.059 4 121312350.449 4        28.000 4     -2375.038 4
  19092773.209 6 101775221.527 6        39.000 6        75.084 6
  22657130.561 4 121242924.411 4        28.000 4      4796.288 4
  20802061.313 5 111277049.306 5        33.000 5     -2269.408 5
  22838614.212 5 120017727.365 5        32.000 5      1099.854 5
  21659220.393 5 115496471.762 5        34.000 5     -2937.061 5
  21277805.160 5 111815620.321 5        35.000 5     -2233.252 5
  23461423.625 6 123290612.751 6        39.000 6      2814.355 6
  21229886.094 6 111563811.159 6        38.000 6      2523.902 6
  23833236.605 5 125244503.077 5        35.000 5      4116.280 5
 16  6  6 11 11 11.6000000  0 14G12R20G19G32R01R10R21R19G06R09G24G02
                                G25G29
  19833376.238 4 104225094.655 4        28.000 4       205.160 4
  19772314.822 6 105731454.016 6        39.000 6      2188.475 6
  22651906.737 6 119036583.811 6        37.000 6     -2812.601 6
  22230414.705 7 116821597.050 7        42.000 7       603.522 7
  22694076.475 4 121312865.718 4        28.000 4     -2377.721 4
  19092774.060 6 101775206.601 6        39.000 6        73.638 6
  22656955.243 4 121241986.015 4        28.000 4      4818.674 4
  20802145.837 5 111277501.347 5        33.000 5     -2264.344 5
  22838572.619 5 120017509.121 5        33.000 5      1112.476 5
  21659332.140 6 115497067.126 6        39.000 6     -2942.822 6
  21277889.143 6 111816061.641 6        38.000 6     -2235.467 6
  23461324.324 5 123290091.369 5        34.000 5      2846.386 5
  21229788.652 7 111563305.951 7        42.000 7      2525.010 7
  23833079.776 5 125243678.692 5        31.000 5      4119.459 5
 16  6  6 11 11 11.8000000  0 14G12R20G19G32R01R10R21R19G06R09G24G02
                                G25G29
  19833366.619 6 104225044.251 6        39.000 6       206.384 6
  19772233.848 6 105731016.421 6        39.000 6      2187.508 6
  22652018.248 5 119037158.390 5        34.000 5     -2818.630 5
  22230374.478 6 116821476.159 6        41.000 6       604.593 6
  22694172.212 4 121313377.579 4        28.000 4     -2383.273 4
  19092772.616 5 101775191.875 5        33.000 5        69.108 5
  22656778.075 4 121241038.307 4        28.000 4      4822.273 4
  20802226.846 5 111277934.494 5        33.000 5     -2263.387 5
  22838529.783 6 120017283.938 6        36.000 6      1105.200 6
  21659443.546 6 115497661.091 6        37.000 6     -2943.616 6
  21277967.918 7 111816509.259 7        43.000 7     -2238.042 7
  23461221.878 5 123289552.186 5        33.000 5      2852.832 5
  21229690.285 5 111562775.247 5        33.000 5      2522.559 5
  23832918.440 5 125242831.006 5        35.000 5      4110.278 5
 16  6  6 11 11 12.0000000  0 14G12R20G19G32R01R10R21R19G06R09G24G02
                                G25G29
  19833361.964 8 104225003.149 8        50.000 8       205.950 8
  19772150.711 5 105730578.745 5        35.000 5      2188.271 5
  22652117.112 5 119037678.352 5        35.000 5     -2810.710 5
  22230364.628 6 116821355.539 6        39.000 6       602.791 6
  22694267.215 4 121313885.469 4        28.000 4     -2384.714 4
  19092770.849 5 101775212.358 5        30.000 5        75.608 5
  22656596.623 4 121240066.974 4        29.000 4      4820.313 4
  20802311.012 6 111278384.720 6        39.000 6     -2268.262 6
  22838489.678 6 120017072.636 6        36.000 6      1096.477 6
  21659556.514 6 115498249.239 6        39.000 6     -2941.457 6
  21278049.493 7 111816956.832 7        45.000 7     -2237.982 7
  23461111.925 5 123288974.724 5        32.000 5      2856.982 5
  21229597.110 5 111562285.427 5        33.000 5      2512.891 5
  23832753.339 5 125242008.399 5        34.000 5      4110.211 5
 16  6  6 11 11 12.3000000  0 13G12R20G19G32R10R21R19G06R09G24G02G25
                                G29
  19833347.912 8 104224946.507 8        53.000 8       205.375 8
  19772029.218 6 105729941.315 6        39.000 6      2190.912 6
  22652269.322 7 119038478.614 7        43.000 7     -2806.584 7
  22230335.089 6 116821198.860 6        37.000 6       607.764 6
  19092768.541 5 101775199.958 5        30.000 5        76.709 5
  22656336.026 5 121238672.821 5        30.000 5      4813.868 5
  20802432.095 6 111279031.940 6        38.000 6     -2261.823 6
  22838424.170 6 120016728.692 6        38.000 6      1096.289 6
  21659726.789 5 115499171.961 5        34.000 5     -2937.451 5
  21278176.422 6 111817627.852 6        39.000 6     -2236.846 6
  23460948.468 5 123288116.033 5        35.000 5      2849.936 5
  21229450.344 5 111561514.245 5        35.000 5      2527.292 5
  23832507.653 6 125240672.960 6        40.000 6      4108.936 6
 16  6  6 11 11 12.6000000  0 14G12R20G19G32R01R10R21R19G06R09G24G02
                                G25G29
  19833336.460 8 104224884.675 8        50.000 8       205.960 8
  19771905.256 6 105729284.425 6        37.000 6      2191.663 6
  22652435.574 5 119039352.181 5        35.000 5     -2800.439 5
  22230300.542 5 116821016.891 5        31.000 5       616.699 5
  22694521.151 4 121315242.890 4        29.000 4     -2373.966 4
  19092767.315 5 101775193.202 5        30.000 5        70.846 5
  22656067.594 5 121237236.401 5        30.000 5      4816.417 5
  20802556.013 7 111279710.471 7        44.000 7     -2261.310 7
  22838363.849 5 120016411.638 5        35.000 5      1096.680 5
  21659893.408 7 115500060.193 7        42.000 7     -2941.396 7
  21278307.774 6 111818261.416 6        41.000 6     -2231.348 6
  23460791.399 5 123287289.975 5        35.000 5      2844.067 5
  21229321.278 5 111560835.600 5        33.000 5      2517.036 5
  23832271.420 7 125239440.368 7        47.000 7      4108.636 7
 16  6  6 11 11 12.8000000  0 14G12R20G32R01R10R21R19G14G06R09G24G02
                                G25G29
  19833329.402 8 104224843.663 8        50.000 8       206.137 8
  19771822.992 6 105728846.724 6        39.000 6      2189.058 6
  22230268.935 5 116820851.240 5        31.000 5       621.678 5
  22694606.260 4 121315698.170 4        29.000 4     -2375.047 4
  19092768.472 5 101775199.229 5        34.000 5        76.889 5
  22655889.615 5 121236284.083 5        34.000 5      4815.934 5
  20802641.943 7 111280162.437 7        47.000 7     -2259.497 7
  22639504.051 4 118971396.373 4        26.000 4      1587.539 4
  22838326.095 5 120016212.953 5        33.000 5      1082.617 5
  21659999.466 7 115500648.361 7        44.000 7     -2942.438 7
  21278392.800 7 111818708.449 7        43.000 7     -2236.377 7
  23460682.985 6 123286721.059 6        40.000 6      2828.223 6
  21229223.780 6 111560323.876 6        38.000 6      2526.858 6
  23832113.116 7 125238619.096 7        44.000 7      4105.334 7
 16  6  6 11 11 13.0000000  0 13G12R20G32R10R21R19G14G06R09G24G02G25
                                G29
  19833321.458 8 104224802.574 8        53.000 8       202.880 8
  19771742.210 6 105728406.767 6        39.000 6      2186.963 6
  22230243.872 5 116820719.473 5        31.000 5       616.093 5
  19092766.077 5 101775182.298 5        30.000 5        86.093 5
  22655705.903 5 121235301.374 5        31.000 5      4814.632 5
  20802723.640 6 111280614.399 6        41.000 6     -2260.175 6
  22639440.262 4 118971060.865 4        26.000 4      1587.539 4
  22838283.543 6 120015989.155 6        38.000 6      1102.930 6
  21660111.807 6 115501225.013 6        41.000 6     -2946.143 6
  21278477.748 7 111819154.926 7        43.000 7     -2229.230 7
  23460578.511 4 123286171.223 4        29.000 4      2824.052 4
  21229132.833 5 111559845.010 5        35.000 5      2524.045 5
  23831955.768 7 125237798.155 7        46.000 7      4102.606 7
 16  6  6 11 11 13.2000000  0 14G12R20G19G32R10R21R19G14G06R09G24G02
                                G25G29
  19833313.269 8 104224761.254 8        52.000 8       205.687 8
  19771660.050 6 105727967.131 6        40.000 6      2194.678 6
  22652759.311 6 119041053.244 6        37.000 6     -2803.224 6
  22230213.605 5 116820560.782 5        31.000 5       620.898 5
  19092762.189 5 101775165.375 5        34.000 5        81.980 5
  22655525.298 5 121234334.634 5        31.000 5      4820.251 5
  20802808.828 7 111281047.107 7        44.000 7     -2257.025 7
  22639383.941 4 118970765.358 4        25.000 4      1587.539 4
  22838238.801 4 120015754.698 4        28.000 4      1100.465 4
  21660228.117 6 115501845.280 6        39.000 6     -2966.064 6
  21278563.162 7 111819603.426 7        44.000 7     -2231.825 7
  23460468.522 5 123285593.953 5        33.000 5      2829.334 5
  21229035.906 5 111559335.871 5        35.000 5      2518.004 5
  23831800.465 8 125236956.247 8        50.000 8      4101.318 8
 16  6  6 11 11 13.3999998  0 15G12R20R02G19G32R01R10R21R19G14R09G24
                                G02G25G29
  19833305.835 8 104224720.086 8        49.000 8       207.173 8
  19771576.163 6 105727518.813 6        40.000 6      2193.060 6
  22685285.705 5 121053031.285 5        31.000 5      1249.972 5
  22652856.744 7 119041564.810 7        43.000 7     -2804.785 7
  22230185.911 5 116820414.438 5        31.000 5       627.344 5
  22694911.608 5 121317329.584 5        34.000 5     -2402.245 5
  19092759.768 6 101775149.732 6        37.000 6        73.251 6
  22655342.616 4 121233356.969 4        26.000 4      4811.022 4
  20802896.563 6 111281517.332 6        37.000 6     -2265.528 6
  22639320.628 4 118970432.850 4        26.000 4      1587.539 4
  21660342.865 7 115502456.494 7        44.000 7     -2968.261 7
  21278653.764 7 111820079.975 7        42.000 7     -2232.385 7
  23460343.269 6 123284935.813 6        36.000 6      2824.697 6
  21228945.370 6 111558860.280 6        39.000 6      2515.967 6
  23831645.992 7 125236144.170 7        47.000 7      4101.978 7
 16  6  6 11 11 13.6000000  0 15G12R20R02G19G32R01R10R21R19G14R09G24
                                G02G25G29
  19833294.471 8 104224679.040 8        51.000 8       205.602 8
  19771493.802 7 105727080.364 7        44.000 7      2191.238 7
  22685240.583 5 121052790.231 5        30.000 5      1250.232 5
  22652975.353 6 119042188.040 6        41.000 6     -2816.504 6
  22230161.996 5 116820289.427 5        30.000 5       631.909 5
  22695030.492 5 121317965.062 5        34.000 5     -2400.970 5
  19092756.317 5 101775134.032 5        34.000 5        68.604 5
  22655165.762 4 121232411.071 4        26.000 4      4809.082 4
  20802979.631 6 111281961.086 6        36.000 6     -2264.673 6
  22639265.825 4 118970144.343 4        26.000 4      1587.539 4
  21660446.105 7 115503007.024 7        44.000 7     -2945.166 7
  21278739.719 6 111820531.595 6        40.000 6     -2224.365 6
  23460227.862 6 123284328.672 6        38.000 6      2830.518 6
  21228855.192 4 111558386.805 4        29.000 4      2519.234 4
  23831490.109 7 125235324.616 7        44.000 7      4101.446 7
 16  6  6 11 11 13.8000000  0 14G12R20R02G19R01R10R21R19G06R09G24G02
                                G25G29
  19833290.248 8 104224637.772 8        49.000 8       206.618 8
  19771412.026 7 105726640.708 7        45.000 7      2184.570 7
  22685193.682 5 121052539.558 5        30.000 5      1240.140 5
  22653079.182 7 119042734.074 7        42.000 7     -2813.525 7
  22695128.671 6 121318490.521 6        36.000 6     -2380.030 6
  19092753.495 6 101775119.770 6        41.000 6        80.445 6
  22654989.188 4 121231465.452 4        27.000 4      4811.931 4
  20803061.337 6 111282398.683 6        40.000 6     -2254.150 6
  22838093.811 5 120014992.750 5        34.000 5      1097.266 5
  21660555.260 7 115503589.158 7        44.000 7     -2945.433 7
  21278824.178 6 111820975.506 6        40.000 6     -2225.342 6
  23460121.346 6 123283769.182 6        36.000 6      2830.033 6
  21228762.692 4 111557900.896 4        29.000 4      2515.506 4
  23831334.680 8 125234505.519 8        51.000 8      4093.262 8
 16  6  6 11 11 14.0000000  0 15G12R20R02G19G32R01R10R21R19G06R09G24
                                G02G25G29
  19833282.714 8 104224596.598 8        51.000 8       206.010 8
  19771329.726 7 105726200.358 7        45.000 7      2186.633 7
  22685143.429 4 121052271.423 4        29.000 4      1247.829 4
  22653179.294 6 119043259.977 6        36.000 6     -2816.602 6
  22230114.278 5 116820038.198 5        30.000 5       621.737 5
  22695229.128 5 121319027.173 5        34.000 5     -2399.035 5
  19092747.749 6 101775104.111 6        41.000 6        81.549 6
  22654810.162 4 121230507.593 4        27.000 4      4812.646 4
  20803147.414 6 111282858.882 6        41.000 6     -2256.671 6
  22838056.660 6 120014797.667 6        37.000 6      1095.361 6
  21660662.950 5 115504181.647 5        32.000 5     -2971.481 5
  21278912.764 6 111821440.880 6        38.000 6     -2220.474 6
  23460012.469 5 123283196.906 5        33.000 5      2839.648 5
  21228665.250 5 111557388.302 5        33.000 5      2519.925 5
  23831177.920 8 125233686.496 8        48.000 8      4092.383 8
 16  6  6 11 11 14.2000000  0 15G12R20R02G19G32R10R21R19G06R09G24G17
                                G02G25G29
  19833274.080 8 104224555.520 8        52.000 8       204.926 8
  19771247.322 7 105725763.249 7        46.000 7      2185.107 7
  22685097.513 4 121052026.586 4        29.000 4      1243.797 4
  22653291.189 6 119043847.926 6        37.000 6     -2808.301 6
  22230092.317 5 116819923.261 5        30.000 5       626.140 5
  19092741.341 7 101775088.380 7        44.000 7        77.155 7
  22654634.390 5 121229566.855 5        32.000 5      4798.224 5
  20803229.775 6 111283309.548 6        38.000 6     -2255.157 6
  22838029.712 6 120014655.420 6        38.000 6      1091.260 6
  21660774.461 7 115504757.879 7        42.000 7     -2948.828 7
  21278998.227 7 111821890.384 7        42.000 7     -2231.787 7
  25097958.852 4 131890663.325 4        25.000 4     -3145.709 4
  23459913.732 4 123282677.878 4        29.000 4      2854.216 4
  21228565.597 5 111556864.800 5        34.000 5      2499.902 5
  23831022.098 8 125232868.168 8        50.000 8      4090.802 8
 16  6  6 11 11 14.3999998  0 15G12R20R02G19G32R10R21R19G06R09G24G17
                                G02G25G29
  19833265.477 8 104224514.365 8        51.000 8       206.304 8
  19771165.755 7 105725325.899 7        46.000 7      2188.417 7
  22685046.799 4 121051755.540 4        29.000 4      1248.234 4
  22653395.188 6 119044394.773 6        40.000 6     -2807.227 6
  22230075.190 5 116819833.243 5        30.000 5       626.658 5
  19092737.532 7 101775072.430 7        46.000 7        79.906 7
  22654454.422 4 121228604.331 4        26.000 4      4788.210 4
  20803319.788 6 111283781.178 6        41.000 6     -2269.385 6
  22837994.114 5 120014468.223 5        32.000 5      1083.350 5
  21660887.621 6 115505361.990 6        36.000 6     -2958.301 6
  21279089.657 5 111822370.106 5        35.000 5     -2222.412 5
  25098078.247 4 131891290.936 4        25.000 4     -3131.862 4
  23459811.321 4 123282140.239 4        29.000 4      2839.853 4
  21228471.082 4 111556367.818 4        28.000 4      2495.049 4
  23830868.074 8 125232050.117 8        48.000 8      4089.764 8
 16  6  6 11 11 14.6000000  0 15G12R20R02G19G32R10R21R19G06R09G24G17
                                G02G25G29
  19833257.987 8 104224473.242 8        51.000 8       206.467 8
  19771084.180 7 105724888.390 7        42.000 7      2189.854 7
  22684998.553 4 121051498.541 4        28.000 4      1249.094 4
  22653504.400 7 119044968.300 7        43.000 7     -2804.281 7
  22230052.299 4 116819712.342 4        29.000 4       630.910 4
  19092730.112 7 101775056.379 7        43.000 7        81.236 7
  22654276.442 4 121227651.396 4        27.000 4      4785.284 4
  20803402.000 6 111284220.184 6        40.000 6     -2256.775 6
  22837946.955 5 120014221.215 5        35.000 5      1088.330 5
  21661004.577 5 115505985.790 5        32.000 5     -2952.393 5
  21279169.470 6 111822789.676 6        41.000 6     -2230.713 6
  25098197.318 4 131891916.523 4        25.000 4     -3144.043 4
  23459705.882 6 123281585.715 6        36.000 6      2844.194 6
  21228375.189 4 111555864.378 4        29.000 4      2503.137 4
  23830710.193 8 125231232.584 8        51.000 8      4086.816 8
 16  6  6 11 11 14.8000000  0 14G12R20R02G19G32R10R21R19R09G24G17G02
                                G25G29
  19833250.505 8 104224432.186 8        51.000 8       204.492 8
  19771002.151 7 105724448.978 7        45.000 7      2190.479 7
  22684950.657 4 121051242.896 4        28.000 4      1233.262 4
  22653608.229 7 119045528.711 7        45.000 7     -2800.563 7
  22230025.949 4 116819574.074 4        29.000 4       641.392 4
  19092728.292 7 101775040.265 7        44.000 7        79.950 7
  22654096.832 5 121226690.609 5        31.000 5      4781.125 5
  20803487.955 5 111284680.222 5        33.000 5     -2255.828 5
  21661116.882 6 115506584.194 6        37.000 6     -2965.136 6
  21279258.828 5 111823259.764 5        35.000 5     -2236.592 5
  25098315.692 4 131892538.257 4        25.000 4     -3136.435 4
  23459594.249 6 123280999.059 6        38.000 6      2827.882 6
  21228274.326 5 111555333.969 5        33.000 5      2506.880 5
  23830556.588 8 125230415.383 8        51.000 8      4085.126 8
 16  6  6 11 11 15.0000000  0 13G12R20G19R01R10R21R19R09G24G17G02G25
                                G29
  19833242.138 8 104224391.138 8        50.000 8       204.893 8
  19770920.584 5 105724012.595 5        33.000 5      2194.971 5
  22653716.800 6 119046084.336 6        41.000 6     -2800.049 6
  22695585.274 5 121320931.405 5        33.000 5     -2399.471 5
  19092725.121 7 101775024.082 7        45.000 7        81.255 7
  22653917.352 5 121225730.066 5        31.000 5      4778.926 5
  20803574.286 5 111285142.281 5        33.000 5     -2253.671 5
  21661231.290 5 115507194.414 5        35.000 5     -2963.916 5
  21279338.868 6 111823679.965 6        39.000 6     -2218.111 6
  25098435.208 4 131893166.510 4        24.000 4     -3132.161 4
  23459481.943 5 123280409.644 5        33.000 5      2829.896 5
  21228179.589 5 111554836.282 5        32.000 5      2492.479 5
  23830399.662 8 125229598.500 8        50.000 8      4083.478 8
 16  6  6 11 11 15.2000000  0 14G12R20R02G19R01R10R21R19R09G24G17G02
                                G25G29
  19833235.210 8 104224350.153 8        50.000 8       205.144 8
  19770838.459 6 105723573.742 6        38.000 6      2187.327 6
  22684854.672 4 121050730.645 4        28.000 4      1260.882 4
  22653828.032 6 119046669.598 6        37.000 6     -2816.406 6
  22695680.260 5 121321439.130 5        32.000 5     -2400.271 5
  19092721.295 7 101774947.881 7        44.000 7        81.469 7
  22653739.678 5 121224779.351 5        31.000 5      4801.357 5
  20803658.619 5 111285593.635 5        33.000 5     -2272.439 5
  21661341.458 5 115507781.421 5        33.000 5     -2956.124 5
  21279419.776 7 111824105.063 7        43.000 7     -2244.955 7
  25098552.709 4 131893783.868 4        24.000 4     -3136.134 4
  23459375.855 4 123279851.667 4        28.000 4      2838.064 4
  21228084.464 5 111554336.196 5        31.000 5      2487.202 5
  23830243.622 8 125228781.803 8        48.000 8      4083.118 8
 16  6  6 11 11 15.3999998  0 15G12R20R02G19R01R10R21R19G14R09G24G17
                                G02G25G29
  19833226.459 8 104224309.174 8        48.000 8       203.880 8
  19770757.250 7 105723136.301 7        42.000 7      2188.741 7
  22684804.123 4 121050460.895 4        28.000 4      1258.663 4
  22653935.399 7 119047233.409 7        42.000 7     -2798.779 7
  22695774.408 5 121321941.944 5        32.000 5     -2399.084 5
  19092715.357 7 101774931.638 7        45.000 7        81.696 7
  22653562.973 5 121223833.856 5        31.000 5      4802.845 5
  20803740.962 6 111286034.119 6        39.000 6     -2249.664 6
  22638715.454 5 118967252.393 5        31.000 5      1585.286 5
  21661453.606 6 115508379.903 6        36.000 6     -2966.211 6
  21279502.848 6 111824541.221 6        40.000 6     -2241.934 6
  25098672.780 4 131894414.964 4        24.000 4     -3136.508 4
  23459266.896 5 123279279.164 5        35.000 5      2829.109 5
  21227990.987 4 111553845.047 4        27.000 4      2469.063 4
  23830088.433 7 125227965.410 7        47.000 7      4081.030 7
 16  6  6 11 11 15.6000000  0 15G12R20R02G19R01R10R21R19G14R09G24G17
                                G02G25G29
  19833219.260 8 104224268.151 8        50.000 8       205.272 8
  19770679.566 7 105722698.963 7        42.000 7      2187.012 7
  22684756.165 4 121050205.080 4        28.000 4      1243.642 4
  22654042.853 5 119047798.143 5        35.000 5     -2813.428 5
  22695873.538 5 121322471.630 5        32.000 5     -2399.007 5
  19092714.611 7 101774915.427 7        45.000 7        81.567 7
  22653386.564 5 121222889.719 5        30.000 5      4813.805 5
  20803828.339 6 111286501.518 6        40.000 6     -2251.073 6
  22638649.680 4 118966906.103 4        25.000 4      1570.348 4
  21661567.307 6 115508985.778 6        40.000 6     -2959.338 6
  21279589.335 7 111824996.347 7        42.000 7     -2241.283 7
  25098791.232 4 131895037.178 4        24.000 4     -3129.623 4
  23459162.792 5 123278731.946 5        34.000 5      2832.959 5
  21227893.410 4 111553332.567 4        26.000 4      2463.865 4
  23829933.440 8 125227149.235 8        48.000 8      4079.901 8
 16  6  6 11 11 15.8000000  0 13G12R20G19G32R10R21R19G06R09G24G17G02
                                G29
  19833211.818 8 104224227.166 8        50.000 8       205.430 8
  19770600.442 6 105722261.795 6        40.000 6      2185.353 6
  22654148.440 6 119048353.068 6        40.000 6     -2800.684 6
  22229902.149 4 116818923.346 4        28.000 4       634.918 4
  19092714.372 7 101774899.212 7        46.000 7        80.640 7
  22653210.051 5 121221944.715 5        30.000 5      4817.267 5
  20803910.543 6 111286940.710 6        41.000 6     -2252.026 6
  22837697.805 5 120012911.569 5        34.000 5      1101.487 5
  21661683.338 6 115509604.504 6        37.000 6     -2964.599 6
  21279681.477 6 111825480.319 6        38.000 6     -2242.676 6
  25098910.491 4 131895664.828 4        24.000 4     -3127.915 4
  23459055.316 6 123278167.317 6        37.000 6      2827.783 6
  23829779.097 8 125226333.330 8        50.000 8      4078.949 8
 16  6  6 11 11 16.0000000  0 14G12R20G19G32R01R10R21R19G06R09G24G17
                                G02G29
  19833203.093 8 104224186.185 8        48.000 8       204.391 8
  19770519.242 6 105721824.587 6        41.000 6      2185.413 6
  22654252.858 7 119048902.117 7        44.000 7     -2793.716 7
  22229875.895 4 116818785.859 4        27.000 4       639.024 4
  22696049.855 4 121323415.027 4        26.000 4     -2393.973 4
  19092710.729 7 101774882.858 7        45.000 7        81.160 7
  22653029.690 5 121220980.295 5        30.000 5      4765.007 5
  20803993.610 7 111287390.858 7        42.000 7     -2251.935 7
  22837653.119 6 120012676.178 6        38.000 6      1092.188 6
  21661793.358 6 115510191.943 6        37.000 6     -2952.100 6
  21279768.104 7 111825936.085 7        43.000 7     -2236.816 7
  25099029.432 3 131896289.132 3        23.000 3     -3118.300 3
  23458948.979 6 123277608.434 6        39.000 6      2828.294 6
  23829622.883 8 125225517.595 8        50.000 8      4078.766 8
 16  6  6 11 11 16.2000000  0 15G12R20G19G32R01R10R21R19G14G06R09G24
                                G02G25G29
  19833195.454 8 104224145.252 8        48.000 8       205.442 8
  19770436.978 6 105721387.554 6        41.000 6      2183.652 6
  22654356.612 5 119049446.898 5        34.000 5     -2794.839 5
  22229852.682 4 116818663.819 4        27.000 4       656.956 4
  22696145.164 4 121323924.353 4        26.000 4     -2386.861 4
  19092709.939 7 101774866.480 7        44.000 7        81.677 7
  22652842.951 5 121219980.685 5        30.000 5      4770.470 5
  20804077.620 6 111287841.056 6        39.000 6     -2252.106 6
  22638467.870 4 118965950.633 4        26.000 4      1587.495 4
  22837613.590 6 120012468.791 6        37.000 6      1070.020 6
  21661905.418 6 115510789.251 6        37.000 6     -2961.670 6
  21279850.565 7 111826369.233 7        42.000 7     -2233.740 7
  23458848.151 6 123277078.290 6        40.000 6      2835.059 6
  21227608.182 5 111551833.880 5        31.000 5      2509.172 5
  23829467.410 8 125224702.043 8        49.000 8      4078.107 8
 16  6  6 11 11 16.5000000  0 14G12R20G19R01R10R21R19G14G06R09G24G02
                                G25G29
  19833182.846 8 104224083.701 8        50.000 8       205.447 8
  19770314.961 7 105720731.888 7        42.000 7      2186.447 7
  22654517.023 6 119050290.171 6        41.000 6     -2793.074 6
  22696275.373 4 121324620.522 4        25.000 4     -2390.926 4
  19092705.677 7 101774841.836 7        43.000 7        82.205 7
  22652573.663 5 121218539.367 5        34.000 5      4775.397 5
  20804204.627 6 111288514.496 6        36.000 6     -2252.734 6
  22638377.282 5 118965475.154 5        32.000 5      1590.611 5
  22837548.841 6 120012128.824 6        40.000 6      1070.730 6
  21662076.976 5 115511703.515 5        34.000 5     -2950.391 5
  21279979.880 7 111827048.709 7        44.000 7     -2243.710 7
  23458694.856 5 123276273.454 5        32.000 5      2830.957 5
  21227465.762 4 111551085.154 4        25.000 4      2493.604 4
  23829234.978 8 125223478.969 8        50.000 8      4076.343 8
 16  6  6 11 11 16.7000000  0 14G12R20G19R01R10R21R19G14G06R09G24G02
                                G25G29
  19833175.273 8 104224042.765 8        50.000 8       204.297 8
  19770230.288 6 105720295.002 6        40.000 6      2184.739 6
  22654621.716 6 119050849.002 6        39.000 6     -2795.374 6
  22696367.637 4 121325113.438 4        25.000 4     -2403.165 4
  19092702.793 7 101774825.495 7        43.000 7        82.408 7
  22652394.951 5 121217583.591 5        30.000 5      4816.663 5
  20804288.305 6 111288961.656 6        39.000 6     -2271.485 6
  22638316.442 4 118965155.694 4        28.000 4      1584.223 4
  22837508.130 6 120011914.676 6        38.000 6      1077.393 6
  21662189.203 5 115512302.760 5        31.000 5     -2938.605 5
  21280064.793 7 111827495.019 7        43.000 7     -2245.361 7
  23458592.314 5 123275733.965 5        32.000 5      2832.520 5
  21227372.141 4 111550592.508 4        25.000 4      2494.066 4
  23829080.648 8 125222663.752 8        51.000 8      4075.891 8
 16  6  6 11 11 16.8999998  0 13G12R20G19R01R10R21R19G14R11G24G02G25
                                G29
  19833168.062 8 104224001.763 8        51.000 8       204.775 8
  19770150.563 7 105719858.009 7        42.000 7      2188.331 7
  22654726.195 5 119051389.537 5        34.000 5     -2794.873 5
  22696456.594 4 121325589.204 4        25.000 4     -2400.040 4
  19092698.138 7 101774809.090 7        45.000 7        81.917 7
  22652218.420 5 121216638.706 5        30.000 5      4806.388 5
  20804376.861 6 111289434.980 6        39.000 6     -2271.533 6
  22638251.414 5 118964813.600 5        32.000 5      1583.789 5
  21007173.349 4 112255964.320 4        27.000 4      3394.871 4
  21280151.603 5 111827951.148 5        35.000 5     -2236.091 5
  23458486.600 6 123275178.801 6        40.000 6      2838.135 6
  21227278.394 4 111550100.330 4        25.000 4      2485.259 4
  23828925.507 8 125221848.626 8        51.000 8      4075.342 8
 16  6  6 11 11 17.1000000  0 13G12R20G32R01R10R21R19G14R11R09G24G02
                                G29
  19833161.745 8 104223960.815 8        49.000 8       205.104 8
  19770071.753 6 105719474.120 6        38.000 6      2188.477 6
  22229733.527 4 116818037.511 4        27.000 4       642.278 4
  22696545.943 4 121326066.784 4        24.000 4     -2425.038 4
  19092692.044 7 101774792.790 7        45.000 7        82.173 7
  22652041.593 5 121215692.773 5        30.000 5      4768.245 5
  20804460.932 5 111289885.079 5        35.000 5     -2237.647 5
  22638189.047 5 118964485.943 5        31.000 5      1593.408 5
  21007044.571 5 112255276.061 5        32.000 5      3386.249 5
  21662413.953 5 115513501.170 5        34.000 5     -2968.479 5
  21280237.349 6 111828401.235 6        41.000 6     -2228.711 6
  23458379.412 6 123274615.340 6        38.000 6      2826.611 6
  23828770.575 8 125221033.576 8        52.000 8      4075.598 8
 16  6  6 11 11 17.3000000  0 12G12R20G32R01R10R21R19R11R09G24G02G29
  19833152.958 8 104223919.966 8        50.000 8       204.436 8
  19769988.197 6 105719027.554 6        37.000 6      2182.296 6
  22229709.298 4 116817910.760 4        27.000 4       637.162 4
  22696633.094 4 121326532.644 4        24.000 4     -2414.102 4
  19092686.848 7 101774776.475 7        45.000 7        81.654 7
  22651860.839 5 121214725.260 5        34.000 5      4765.881 5
  20804545.063 6 111290335.066 6        36.000 6     -2249.756 6
  21006916.700 4 112254593.398 4        27.000 4      3403.107 4
  21662524.548 5 115514090.953 5        31.000 5     -2968.247 5
  21280321.721 7 111828844.835 7        45.000 7     -2250.000 7
  23458268.918 6 123274034.602 6        36.000 6      2827.062 6
  23828615.277 8 125220218.571 8        52.000 8      4074.469 8
 16  6  6 11 11 17.5000000  0 13G12R20G19R01R10R21R19R11R09G24G17G02
                                G29
  19833145.442 8 104223879.071 8        52.000 8       204.377 8
  19769907.076 5 105718590.875 5        33.000 5      2180.878 5
  22655044.997 6 119053064.619 6        38.000 6     -2798.144 6
  22696722.138 3 121327008.109 3        23.000 3     -2376.085 3
  19092683.886 7 101774760.278 7        46.000 7        82.763 7
  22651677.110 6 121213742.140 6        37.000 6      4764.364 6
  20804633.924 5 111290810.719 5        33.000 5     -2291.064 5
  21006786.203 4 112253895.506 4        28.000 4      3401.709 4
  21662634.375 5 115514676.220 5        34.000 5     -2965.046 5
  21280409.670 5 111829307.239 5        33.000 5     -2232.178 5
  25099922.045 4 131900979.939 4        25.000 4     -3124.091 4
  23458164.116 6 123273483.702 6        40.000 6      2837.793 6
  23828459.922 8 125219403.630 8        52.000 8      4074.664 8
 16  6  6 11 11 17.7000000  0 14G12R20G19G32R01R10R21R19G14R11R09G24
                                G02G29
  19833137.912 8 104223838.189 8        52.000 8       204.263 8
  19769826.303 6 105718161.711 6        36.000 6      2180.507 6
  22655162.428 6 119053681.127 6        36.000 6     -2812.695 6
  22229660.655 4 116817654.267 4        27.000 4       644.947 4
  22696812.840 3 121327493.327 3        23.000 3     -2376.085 3
  19092681.090 7 101774744.077 7        45.000 7        81.159 7
  22651494.638 5 121212765.192 5        34.000 5      4764.580 5
  20804720.517 5 111291273.317 5        31.000 5     -2280.567 5
  22638007.298 4 118963530.864 4        27.000 4      1591.247 4
  21006653.682 5 112253187.427 5        33.000 5      3396.777 5
  21662749.603 5 115515291.094 5        34.000 5     -2969.696 5
  21280494.993 6 111829755.395 6        40.000 6     -2232.520 6
  23458058.481 6 123272928.379 6        36.000 6      2841.016 6
  23828304.676 8 125218588.744 8        52.000 8      4074.115 8
 16  6  6 11 11 17.8999998  0 15G12R20R02G19R01R10R21R19G14R11R09G24
                                G17G02G29
  19833131.071 8 104223797.268 8        51.000 8       204.056 8
  19769748.706 6 105717746.635 6        39.000 6      2178.776 6
  22684209.280 4 121047286.873 4        26.000 4      1262.807 4
  22655260.368 6 119054196.476 6        40.000 6     -2791.846 6
  22696899.310 3 121327955.545 3        23.000 3     -2376.085 3
  19092677.237 7 101774727.692 7        46.000 7        80.861 7
  22651311.476 6 121211812.347 6        37.000 6      4763.903 6
  20804804.439 5 111291722.519 5        35.000 5     -2258.887 5
  22637937.641 4 118963165.232 4        27.000 4      1587.703 4
  21006522.077 4 112252484.290 4        28.000 4      3390.441 4
  21662861.350 5 115515886.344 5        34.000 5     -2960.386 5
  21280579.264 6 111830198.756 6        39.000 6     -2241.357 6
  25100158.579 5 131902223.184 5        34.000 5     -3144.169 5
  23457950.573 5 123272361.623 5        35.000 5      2821.387 5
  23828149.238 8 125217773.973 8        51.000 8      4073.468 8
 16  6  6 11 11 18.1000000  0 15G12R20R02G19G32R01R10R21R19G14R11R09
                                G24G17G29
  19833122.490 8 104223756.429 8        51.000 8       204.084 8
  19769663.981 6 105717293.361 6        40.000 6      2183.252 6
  22684160.842 4 121047028.558 4        27.000 4      1267.831 4
  22655364.755 6 119054745.136 6        41.000 6     -2796.582 6
  22229607.223 5 116817373.443 5        33.000 5       619.939 5
  22696988.354 3 121328431.763 3        23.000 3     -2376.085 3
  19092674.275 7 101774711.417 7        44.000 7        82.074 7
  22651129.745 6 121210859.685 6        37.000 6      4762.739 6
  20804889.435 5 111292177.567 5        32.000 5     -2260.547 5
  22637879.816 4 118962860.946 4        27.000 4      1584.204 4
  21006394.555 4 112251802.878 4        28.000 4      3397.770 4
  21662978.332 5 115516510.764 5        34.000 5     -2963.784 5
  21280661.333 5 111830629.891 5        34.000 5     -2218.701 5
  25100277.502 5 131902848.501 5        30.000 5     -3145.449 5
  23827994.455 8 125216959.344 8        51.000 8      4072.589 8
 16  6  6 11 11 18.3000000  0 16G12R20R02G19G32R01R10R21R19G14R11R09
                                G24G17G02G29
  19833114.350 8 104223715.559 8        51.000 8       204.709 8
  19769578.671 6 105716836.727 6        38.000 6      2180.806 6
  22684112.929 4 121046772.570 4        27.000 4      1270.916 4
  22655467.868 6 119055286.677 6        40.000 6     -2790.283 6
  22229581.431 5 116817238.554 5        33.000 5       621.660 5
  22697076.857 3 121328904.469 3        23.000 3     -2386.761 3
  19092672.247 7 101774695.139 7        44.000 7        81.990 7
  22650949.070 6 121209907.157 6        37.000 6      4761.761 6
  20804970.740 6 111292612.400 6        38.000 6     -2251.953 6
  22637817.283 4 118962531.785 4        28.000 4      1584.786 4
  21006263.883 5 112251104.279 5        33.000 5      3392.698 5
  21663087.697 6 115517093.102 6        36.000 6     -2961.694 6
  21280745.953 6 111831073.850 6        37.000 6     -2235.596 6
  25100394.501 5 131903477.901 5        30.000 5     -3147.887 5
  23457732.463 5 123271215.613 5        34.000 5      2835.156 5
  23827840.605 8 125216144.891 8        50.000 8      4072.070 8
 16  6  6 11 11 18.5000000  0 16G12R20R02G19G32R01R10R21R19G14R11R09
                                G24G17G02G29
  19833106.462 8 104223674.652 8        50.000 8       204.268 8
  19769496.433 5 105716397.854 5        35.000 5      2179.280 5
  22684063.653 4 121046509.415 4        27.000 4      1278.544 4
  22655577.770 5 119055864.230 5        35.000 5     -2797.019 5
  22229558.319 4 116817117.365 4        29.000 4       610.136 4
  22697165.910 3 121329380.396 3        22.000 3     -2357.858 3
  19092667.356 7 101774678.778 7        45.000 7        81.094 7
  22650768.796 5 121208954.624 5        35.000 5      4763.705 5
  20805056.207 6 111293069.016 6        38.000 6     -2256.885 6
  22637757.546 4 118962218.753 4        28.000 4      1594.994 4
  21006133.369 5 112250407.619 5        33.000 5      3382.080 5
  21663198.562 5 115517685.140 5        34.000 5     -2960.585 5
  21280829.736 5 111831514.097 5        33.000 5     -2249.561 5
  25100513.150 4 131904086.857 4        29.000 4     -3149.575 4
  23457626.357 6 123270658.489 6        36.000 6      2828.223 6
  23827685.102 8 125215330.574 8        48.000 8      4071.124 8
 16  6  6 11 11 18.8000000  0 13G12R20G32R01R10R21R19G14R11R09G24G02
                                G29
  19833094.400 8 104223613.389 8        50.000 8       204.409 8
  19769373.535 5 105715739.936 5        32.000 5      2185.134 5
  22229517.699 6 116816903.799 6        37.000 6       615.718 6
  22697297.410 3 121330083.475 3        21.000 3     -2353.431 3
  19092661.558 7 101774654.331 7        44.000 7        81.463 7
  22650502.248 5 121207454.718 5        32.000 5      4764.990 5
  20805181.407 6 111293739.619 6        40.000 6     -2269.092 6
  22637662.595 4 118961719.194 4        29.000 4      1599.848 4
  21005938.995 5 112249368.250 5        33.000 5      3389.897 5
  21663364.274 5 115518568.860 5        34.000 5     -2971.777 5
  21280962.619 6 111832212.837 6        38.000 6     -2239.990 6
  23457464.694 6 123269808.078 6        36.000 6      2803.418 6
  23827451.840 8 125214109.294 8        48.000 8      4070.123 8
 16  6  6 11 11 19.0000000  0 13G12R20G32R01R10R21R19G14R11R09G24G02
                                G29
  19833086.818 8 104223572.537 8        51.000 8       204.523 8
  19769295.563 5 105715323.066 5        32.000 5      2188.232 5
  22229492.466 5 116816771.008 5        35.000 5       614.398 5
  22697386.297 3 121330558.433 3        21.000 3     -2376.085 3
  19092658.012 7 101774637.995 7        45.000 7        82.452 7
  22650324.226 5 121206502.428 5        35.000 5      4760.400 5
  20805265.129 6 111294187.006 6        38.000 6     -2269.092 6
  22637600.808 5 118961394.333 5        32.000 5      1601.270 5
  21005805.121 5 112248653.669 5        33.000 5      3401.123 5
  21663474.416 5 115519155.517 5        33.000 5     -2966.357 5
  21281047.776 6 111832660.113 6        36.000 6     -2244.531 6
  23457355.778 5 123269235.865 5        33.000 5      2826.660 5
  23827296.804 8 125213295.207 8        49.000 8      4069.879 8
 16  6  6 11 11 19.3000000  0 15G12R20R02G32R01R10R21R19G14R11G06R09
                                G24G02G29
  19833074.611 8 104223511.239 8        49.000 8       204.382 8
  19769172.639 6 105714665.655 6        39.000 6      2182.275 6
  22683869.768 4 121045475.583 4        27.000 4      1237.982 4
  22229457.116 5 116816585.023 5        32.000 5       627.295 5
  22697518.531 3 121331265.250 3        22.000 3     -2357.598 3
  19092652.205 7 101774613.547 7        45.000 7        81.145 7
  22650060.714 5 121205092.866 5        32.000 5      4785.059 5
  20805392.956 5 111294870.683 5        35.000 5     -2274.707 5
  22637512.419 4 118960930.579 4        28.000 4      1597.126 4
  21005613.330 5 112247628.398 5        30.000 5      3395.410 5
  22836957.488 5 120009021.099 5        33.000 5      1106.235 5
  21663640.214 5 115520039.429 5        33.000 5     -2960.059 5
  21281174.635 6 111833326.893 6        38.000 6     -2220.654 6
  23457193.858 5 123268385.109 5        34.000 5      2831.738 5
  23827064.921 8 125212074.289 8        49.000 8      4068.976 8
 16  6  6 11 11 19.6000000  0 13G12R20G32R01R10R21R19G14R11R09G24G02
                                G29
  19833062.841 8 104223450.084 8        49.000 8       204.100 8
  19769051.827 5 105714020.162 5        34.000 5      2178.510 5
  22229423.158 5 116816406.321 5        35.000 5       618.701 5
  22697649.534 3 121331965.266 3        22.000 3     -2368.274 3
  19092647.725 7 101774589.231 7        46.000 7        80.322 7
  22649793.835 5 121203664.254 5        32.000 5      4757.861 5
  20805517.486 6 111295537.145 6        36.000 6     -2244.531 6
  22637423.658 4 118960463.885 4        28.000 4      1577.557 4
  21005425.125 5 112246622.799 5        30.000 5      3377.929 5
  21663805.202 5 115520919.290 5        33.000 5     -2966.895 5
  21281303.483 6 111834003.892 6        41.000 6     -2250.781 6
  23457031.933 5 123267534.132 5        34.000 5      2816.504 5
  23826832.218 8 125210853.385 8        49.000 8      4069.843 8
 16  6  6 11 11 19.8999998  0 14G12R20G19G32R01R10R21R19G14R11R09G24
                                G02G29
  19833051.394 8 104223389.060 8        50.000 8       203.458 8
  19768929.017 6 105713365.947 6        38.000 6      2183.289 6
  22656323.431 6 119059782.327 6        41.000 6     -2794.531 6
  22229388.301 5 116816223.293 5        35.000 5       627.100 5
  22697783.652 3 121332682.750 3        22.000 3     -2368.274 3
  19092641.630 7 101774565.076 7        44.000 7        80.118 7
  22649525.307 5 121202227.202 5        32.000 5      4759.717 5
  20805635.802 6 111296169.694 6        40.000 6     -2246.924 6
  22637332.223 4 118959983.276 4        29.000 4      1573.063 4
  21005238.247 4 112245623.828 4        29.000 4      3377.447 4
  21663968.802 6 115521792.229 6        36.000 6     -2967.041 6
  21281429.753 7 111834667.919 7        42.000 7     -2243.359 7
  23456871.247 6 123266690.013 6        36.000 6      2831.836 6
  23826600.095 8 125209632.491 8        49.000 8      4070.032 8
 16  6  6 11 11 20.2000000  0 13G12R20G19G32R01R10R21R19R11G24G17G02
                                G29
  19833039.964 8 104223327.954 8        50.000 8       203.746 8
  19768807.681 6 105712711.803 6        36.000 6      2183.092 6
  22656482.537 5 119060619.226 5        35.000 5     -2790.478 5
  22229354.038 5 116816043.049 5        32.000 5       626.953 5
  22697917.098 3 121333396.234 3        22.000 3     -2368.274 3
  19092637.673 7 101774540.835 7        44.000 7        80.899 7
  22649262.127 4 121200819.065 4        27.000 4      4763.832 4
  20805761.117 6 111296840.328 6        36.000 6     -2269.922 6
  21005050.338 4 112244619.656 4        29.000 4      3388.311 4
  21281557.955 6 111835341.486 6        41.000 6     -2249.049 6
  25101541.753 3 131909492.015 3        21.000 3     -3166.885 3
  23456712.171 5 123265854.379 5        32.000 5      2807.275 5
  23826367.820 7 125208411.565 7        47.000 7      4069.653 7
 16  6  6 11 11 20.3999998  0 15G12R20G19G32R01R10R21R19G14R11R09G24
                                G17G02G29
  19833032.142 8 104223287.272 8        50.000 8       203.440 8
  19768723.323 6 105712263.367 6        37.000 6      2180.908 6
  22656588.364 5 119061174.946 5        31.000 5     -2800.049 5
  22229326.532 5 116815898.473 5        32.000 5       616.406 5
  22698004.633 3 121333863.890 3        22.000 3     -2368.274 3
  19092635.305 7 101774524.719 7        44.000 7        80.979 7
  22649084.479 4 121199868.575 4        27.000 4      4791.816 4
  20805846.976 5 111297299.764 5        31.000 5     -2270.557 5
  22637179.674 4 118959181.628 4        29.000 4      1570.989 4
  21004922.459 5 112243936.921 5        30.000 5      3368.485 5
  21664254.942 5 115523317.536 5        32.000 5     -2977.927 5
  21281646.851 5 111835808.039 5        35.000 5     -2228.809 5
  25101657.941 3 131910102.280 3        22.000 3     -3158.276 3
  23456605.532 5 123265293.958 5        34.000 5      2836.572 5
  23826213.067 7 125207597.636 7        46.000 7      4069.720 7
 16  6  6 11 11 20.7000000  0 13G12R20R02G32R01R10R21R19R11R09G24G02
                                G29
  19833020.838 8 104223226.272 8        50.000 8       202.684 8
  19768598.165 6 105711594.305 6        37.000 6      2181.016 6
  22683537.329 4 121043700.727 4        28.000 4      1222.344 4
  22229292.578 5 116815720.738 5        35.000 5       605.127 5
  22698137.730 3 121334575.375 3        23.000 3     -2368.274 3
  19092631.444 7 101774500.588 7        46.000 7        80.380 7
  22648818.507 4 121198444.701 4        28.000 4      4773.125 4
  20805976.269 5 111297990.750 5        35.000 5     -2285.889 5
  21004734.760 5 112242933.702 5        34.000 5      3371.679 5
  21664420.366 5 115524199.779 5        32.000 5     -2979.937 5
  21281775.603 6 111836485.523 6        41.000 6     -2201.953 6
  23456442.050 6 123264434.671 6        37.000 6      2825.879 6
  23825980.835 7 125206376.674 7        44.000 7      4069.519 7
 16  6  6 11 11 21.0000000  0 14G12R20G32R01R10R21R19G14R11G06G24G02
                                G25G29
  19833009.273 8 104223165.284 8        48.000 8       203.650 8
  19768480.511 6 105710940.531 6        39.000 6      2176.575 6
  22229256.329 5 116815529.525 5        31.000 5       607.617 5
  22698271.525 3 121335290.754 3        23.000 3     -2478.419 3
  19092627.408 7 101774476.490 7        45.000 7        80.397 7
  22648551.253 4 121197015.144 4        29.000 4      4811.159 4
  20806105.135 5 111298680.371 5        35.000 5     -2271.191 5
  22636995.434 4 118958213.505 4        29.000 4      1610.615 4
  21004544.086 5 112241914.744 5        33.000 5      3387.842 5
  22836591.518 4 120007097.710 4        29.000 4      1097.396 4
  21281902.955 5 111837154.803 5        35.000 5     -2252.686 5
  23456280.500 5 123263585.033 5        34.000 5      2826.709 5
  21225330.767 5 111539865.319 5        31.000 5      2519.483 5
  23825748.442 7 125205155.672 7        42.000 7      4070.007 7
 16  6  6 11 11 21.2000000  0 14G12R20G32R01R10R21R19R11G06R09G24G02
                                G25G29
  19833001.504 7 104223124.652 7        42.000 7       203.517 7
  19768399.058 6 105710529.517 6        37.000 6      2180.040 6
  22229232.157 5 116815402.479 5        30.000 5       599.805 5
  22698361.381 3 121335771.315 3        23.000 3     -2400.302 3
  19092624.141 7 101774460.465 7        46.000 7        79.883 7
  22648375.062 4 121196071.933 4        29.000 4      4793.785 4
  20806188.159 6 111299124.812 6        37.000 6     -2246.826 6
  21004417.497 5 112241238.333 5        33.000 5      3400.830 5
  22836556.360 4 120006913.231 4        29.000 4      1097.396 4
  21664701.218 5 115525697.074 5        35.000 5     -2961.694 5
  21281989.626 4 111837609.432 4        25.000 4     -2271.937 4
  23456172.065 4 123263015.906 4        29.000 4      2841.406 4
  21225234.490 5 111539359.426 5        30.000 5      2515.571 5
  23825593.558 5 125204341.808 5        35.000 5      4069.000 5
 16  6  6 11 11 21.3999998  0 12G12R20G32R01R10R21R19R11R09G24G25G29
  19832993.725 5 104223084.053 5        34.000 5       202.907 5
  19768315.406 6 105710093.594 6        37.000 6      2180.735 6
  22229210.435 4 116815288.458 4        24.000 4       595.340 4
  22698449.971 4 121336244.377 4        24.000 4     -2400.302 4
  19092621.414 7 101774444.486 7        43.000 7        79.821 7
  22648199.963 4 121195135.586 4        28.000 4      4803.137 4
  20806270.755 5 111299566.779 5        32.000 5     -2248.438 5
  21004288.562 4 112240548.984 4        28.000 4      3402.783 4
  21664813.157 5 115526294.075 5        31.000 5     -2960.024 5
  21282075.302 4 111838060.132 4        25.000 4     -2242.000 4
  21225137.580 4 111538850.735 4        24.000 4      2518.435 4
  23825438.635 4 125203527.692 4        29.000 4      4070.111 4
 16  6  6 11 11 21.6000000  0 10G12R20R01R10R21R19R11R09G24G29
  19832985.920 6 104223043.442 6        41.000 6       202.821 6
  19768236.274 5 105709657.773 5        35.000 5      2180.572 5
  22698540.490 4 121336728.438 4        24.000 4     -2400.302 4
  19092618.190 7 101774428.449 7        42.000 7        80.645 7
  22648023.772 4 121194192.520 4        28.000 4      4759.728 4
  20806355.044 5 111300016.911 5        35.000 5     -2276.319 5
  21004160.901 4 112239867.317 4        29.000 4      3393.576 4
  21664920.061 5 115526864.193 5        31.000 5     -2962.044 5
  21282160.075 4 111838505.185 4        24.000 4     -2242.000 4
  23825283.734 5 125202713.689 5        33.000 5      4069.934 5
 16  6  6 11 11 21.8000000  0  9G12R20R10R21R19R11R09G24G29
  19832978.181 6 104223002.843 6        39.000 6       202.724 6
  19768152.988 6 105709221.918 6        37.000 6      2178.644 6
  19092615.132 7 101774412.508 7        42.000 7        78.922 7
  22647847.381 4 121193248.434 4        28.000 4      4781.197 4
  20806440.275 5 111300473.535 5        35.000 5     -2289.014 5
  21004030.264 5 112239169.290 5        33.000 5      3392.867 5
  21665031.721 5 115527459.789 5        31.000 5     -2958.709 5
  21282245.280 4 111838953.223 4        25.000 4     -2245.485 4
  23825129.199 5 125201899.610 5        33.000 5      4069.867 5
 16  6  6 11 11 22.0000000  0  9G12R20R10R21R19R11R09G24G29
  19832970.307 6 104222962.341 6        36.000 6       203.137 6
  19768072.294 6 105708786.176 6        37.000 6      2177.800 6
  19092612.118 7 101774396.695 7        42.000 7        78.570 7
  22647668.250 4 121192290.104 4        28.000 4      4752.902 4
  20806525.890 5 111300930.946 5        30.000 5     -2286.621 5
  21003901.320 4 112238479.871 4        29.000 4      3389.737 4
  21665143.799 4 115528057.621 4        24.000 4     -2954.705 4
  21282330.158 4 111839399.615 4        24.000 4     -2225.158 4
  23824974.808 4 125201085.421 4        29.000 4      4071.094 4
 16  6  6 11 11 22.2000000  0  9G12R20R10R21R19R11R09G24G29
  19832962.053 5 104222919.032 5        30.000 5       202.367 5
  19767988.389 4 105708350.300 4        27.000 4      2181.016 4
  19092609.059 6 101774380.829 6        39.000 6        79.589 6
  22647490.280 4 121191337.732 4        27.000 4      4760.096 4
  20806611.339 5 111301388.498 5        31.000 5     -2279.346 5
  21003775.953 4 112237810.141 4        29.000 4      3392.676 4
  21665258.513 4 115528668.889 4        24.000 4     -2959.613 4
  21282412.161 4 111839829.901 4        24.000 4     -2241.577 4
  23824819.475 4 125200271.195 4        28.000 4      4071.295 4
 16  6  6 11 11 22.3999998  0  8G12R20R10R21R19R09G24G29
  19832954.720 5 104222880.442 5        30.000 5       203.732 5
  19767908.009 4 105707902.935 4        27.000 4      2182.040 4
  19092606.054 6 101774365.058 6        41.000 6        79.212 6
  22647313.190 4 121190389.447 4        27.000 4      4775.314 4
  20806697.016 5 111301847.046 5        30.000 5     -2280.291 5
  21665368.453 4 115529255.809 4        25.000 4     -2967.914 4
  21282497.658 4 111840279.193 4        24.000 4     -2232.997 4
  23824664.426 4 125199457.069 4        28.000 4      4071.368 4
 16  6  6 11 11 22.6000000  0  8G12R20R10R21R19R11G24G29
  19832947.665 7 104222840.066 7        43.000 7       201.284 7
  19767827.428 5 105707472.394 5        35.000 5      2177.824 5
  19092603.153 7 101774349.397 7        43.000 7        77.261 7
  22647135.543 4 121189439.420 4        27.000 4      4778.407 4
  20806783.529 5 111302309.418 5        30.000 5     -2290.626 5
  21003519.069 4 112236436.885 4        29.000 4      3399.770 4
  21282583.727 4 111840731.471 4        24.000 4     -2244.220 4
  23824509.590 5 125198642.740 5        33.000 5      4072.790 5
 16  6  6 11 11 22.8000000  0 10G12R20R02R10R21R19R11G24G25G29
  19832938.530 6 104222799.667 6        41.000 6       201.702 6
  19767747.074 5 105707042.594 5        35.000 5      2181.047 5
  22683045.285 4 121041075.577 4        25.000 4      1238.655 4
  19092600.155 7 101774333.704 7        44.000 7        78.802 7
  22646958.864 4 121188493.851 4        28.000 4      4784.353 4
  20806869.389 5 111302768.898 5        34.000 5     -2256.312 5
  21003391.058 4 112235752.945 4        29.000 4      3395.026 4
  21282670.040 4 111841185.711 4        24.000 4     -2254.226 4
  21224463.269 5 111535307.068 5        30.000 5      2490.800 5
  23824355.784 5 125197828.433 5        33.000 5      4071.912 5
 16  6  6 11 11 23.0000000  0 11G12R20R02R10R21R19R11R09G24G25G29
  19832928.330 6 104222759.367 6        37.000 6       201.457 6
  19767666.677 5 105706613.059 5        33.000 5      2177.440 5
  22682998.322 4 121040824.743 4        26.000 4      1233.253 4
  19092597.359 7 101774318.148 7        43.000 7        77.564 7
  22646779.122 4 121187532.046 4        28.000 4      4775.990 4
  20806953.137 5 111303216.736 5        34.000 5     -2246.087 5
  21003264.514 5 112235076.604 5        33.000 5      3387.478 5
  21665702.638 4 115531037.590 4        25.000 4     -2955.797 4
  21282755.224 4 111841633.354 4        25.000 4     -2232.679 4
  21224369.478 5 111534813.998 5        30.000 5      2494.651 5
  23824199.896 4 125197014.107 4        29.000 4      4071.222 4
 16  6  6 11 11 23.2000000  0 10G12R20R10R21R19R11R09G24G25G29
  19832921.355 6 104222719.061 6        40.000 6       201.940 6
  19767585.433 6 105706178.299 6        39.000 6      2179.662 6
  19092594.632 7 101774302.567 7        44.000 7        77.312 7
  22646601.946 4 121186583.805 4        29.000 4      4760.832 4
  20807035.724 5 111303658.080 5        34.000 5     -2260.720 5
  21003137.157 5 112234396.875 5        33.000 5      3387.160 5
  21665812.370 4 115531622.469 4        26.000 4     -2969.162 4
  21282841.471 5 111842086.299 5        30.000 5     -2246.924 5
  21224272.293 5 111534302.946 5        30.000 5      2501.641 5
  23824043.739 5 125196199.651 5        33.000 5      4071.771 5
 16  6  6 11 11 23.3999998  0 11G12R20R02R10R21R19R11R09G24G25G29
  19832915.827 6 104222678.829 6        39.000 6       199.929 6
  19767503.168 6 105705742.814 6        39.000 6      2175.414 6
  22682903.044 4 121040316.337 4        26.000 4      1253.101 4
  19092591.906 7 101774286.988 7        43.000 7        77.336 7
  22646424.359 4 121185633.980 4        29.000 4      4758.785 4
  20807120.790 5 111304113.414 5        31.000 5     -2271.527 5
  21003010.622 6 112233719.807 6        36.000 6      3389.462 6
  21665920.984 4 115532201.609 4        26.000 4     -2964.525 4
  21282927.527 5 111842538.890 5        33.000 5     -2246.314 5
  21224175.401 4 111533793.952 4        29.000 4      2523.633 4
  23823888.637 5 125195385.073 5        33.000 5      4073.260 5
 16  6  6 11 11 23.6000000  0 10G12R20R10R21R19R11R09G24G25G29
  19832907.067 6 104222638.536 6        37.000 6       200.402 6
  19767421.471 6 105705307.298 6        38.000 6      2175.076 6
  19092589.101 7 101774271.504 7        43.000 7        76.915 7
  22646247.471 4 121184686.865 4        28.000 4      4766.983 4
  20807205.995 5 111304569.511 5        31.000 5     -2306.054 5
  21002885.011 5 112233048.984 5        30.000 5      3389.549 5
  21666030.235 4 115532784.211 4        26.000 4     -2950.973 4
  21283013.229 4 111842988.629 4        29.000 4     -2255.411 4
  21224077.531 4 111533279.620 4        29.000 4      2502.051 4
  23823736.645 5 125194570.585 5        33.000 5      4072.052 5
 16  6  6 11 11 23.8000000  0 11G12R20R01R10R21R19R11R09G24G25G29
  19832899.738 6 104222598.307 6        41.000 6       200.919 6
  19767340.236 6 105704871.747 6        39.000 6      2175.120 6
  22699511.983 4 121341921.813 4        26.000 4     -2379.971 4
  19092586.331 7 101774256.029 7        43.000 7        77.620 7
  22646068.706 4 121183730.181 4        28.000 4      4768.668 4
  20807291.837 5 111305028.747 5        31.000 5     -2304.086 5
  21002756.145 5 112232360.333 5        34.000 5      3388.699 5
  21666143.404 4 115533387.800 4        27.000 4     -2955.310 4
  21283099.621 3 111843443.094 3        22.000 3     -2241.177 3
  21223982.240 5 111532779.157 5        35.000 5      2497.217 5
  23823579.314 5 125193755.966 5        35.000 5      4072.601 5
 16  6  6 11 11 24.0000000  0 11G12R20R02R10R21R19R11R09G24G25G29
  19832892.200 6 104222558.132 6        41.000 6       200.554 6
  19767256.558 5 105704436.079 5        35.000 5      2178.060 5
  22682758.630 5 121039546.332 5        32.000 5      1263.813 5
  19092583.630 7 101774240.625 7        44.000 7        77.347 7
  22645889.968 4 121182774.309 4        28.000 4      4770.176 4
  20807377.818 5 111305488.066 5        32.000 5     -2267.990 5
  21002628.423 5 112231677.609 5        32.000 5      3379.980 5
  21666254.924 4 115533982.160 4        27.000 4     -2963.635 4
  21283185.380 4 111843893.118 4        29.000 4     -2229.518 4
  21223884.689 5 111532266.687 5        31.000 5      2499.898 5
  23823422.467 6 125192941.207 6        38.000 6      4074.298 6
 16  6  6 11 11 24.2000000  0 12G12R20R02R01R10R21R19R11R09G24G25G29
  19832885.420 7 104222517.955 7        45.000 7       200.496 7
  19767172.574 5 105704000.582 5        35.000 5      2176.534 5
  22682708.675 5 121039278.974 5        32.000 5      1264.697 5
  22699687.078 5 121342857.454 5        35.000 5     -2355.680 5
  19092580.825 7 101774225.264 7        45.000 7        75.859 7
  22645712.347 4 121181823.488 4        29.000 4      4773.118 4
  20807462.544 5 111305942.218 5        35.000 5     -2264.629 5
  21002504.138 5 112231013.943 5        33.000 5      3381.494 5
  21666367.657 4 115534583.724 4        27.000 4     -2976.219 4
  21283270.201 4 111844339.029 4        28.000 4     -2219.389 4
  21223789.127 6 111531764.399 6        37.000 6      2502.897 6
  23823268.325 6 125192126.543 6        38.000 6      4074.402 6
 16  6  6 11 11 24.3999998  0 15G12R20R02G32R01R10R21R19G14R11G06R09
                                G24G25G29
  19832877.947 7 104222477.724 7        46.000 7       201.065 7
  19767087.413 6 105703565.034 6        38.000 6      2177.273 6
  22682657.855 5 121039007.935 5        32.000 5      1263.368 5
  22228859.149 5 116813443.231 5        31.000 5       630.138 5
  22699774.037 5 121343322.822 5        35.000 5     -2358.008 5
  19092578.029 7 101774209.880 7        45.000 7        76.736 7
  22645534.961 4 121180874.521 4        29.000 4      4766.439 4
  20807545.297 6 111306384.280 6        38.000 6     -2252.598 6
  22635962.050 5 118952782.694 5        30.000 5      1570.774 5
  21002378.090 6 112230339.842 6        39.000 6      3392.773 6
  22835892.898 4 120003427.133 4        29.000 4      1106.678 4
  21666479.657 4 115535180.847 4        27.000 4     -2988.092 4
  21283355.659 4 111844788.365 4        29.000 4     -2245.033 4
  21223691.559 6 111531264.121 6        38.000 6      2499.244 6
  23823111.749 7 125191311.804 7        42.000 7      4074.066 7
 16  6  6 11 11 24.6000000  0 15G12R20R02G32R01R10R21R19G14R11G06R09
                                G24G25G29
  19832871.718 8 104222437.597 8        48.000 8       201.350 8
  19767006.954 6 105703129.408 6        41.000 6      2177.125 6
  22682608.161 4 121038742.695 4        28.000 4      1260.873 4
  22228836.656 5 116813324.304 5        31.000 5       623.082 5
  22699861.659 5 121343793.577 5        32.000 5     -2352.229 5
  19092575.127 7 101774194.570 7        44.000 7        76.175 7
  22645356.441 4 121179918.880 4        29.000 4      4812.200 4
  20807628.452 5 111306829.473 5        32.000 5     -2260.775 5
  22635902.837 5 118952471.667 5        30.000 5      1563.335 5
  21002249.373 5 112229652.341 5        33.000 5      3400.049 5
  22835848.557 4 120003193.760 4        29.000 4      1111.063 4
  21666590.933 4 115535774.577 4        28.000 4     -2950.984 4
  21283441.196 4 111845237.585 4        29.000 4     -2232.601 4
  21223598.510 7 111530764.316 7        42.000 7      2501.417 7
  23822957.629 7 125190496.936 7        43.000 7      4073.614 7
 16  6  6 11 11 24.8000000  0 15G12R20R02G19G32R01R10R21R19R11R09G24
                                G02G25G29
  19832862.910 7 104222397.428 7        47.000 7       200.101 7
  19766927.534 6 105702693.901 6        37.000 6      2177.471 6
  22682560.064 4 121038486.317 4        28.000 4      1257.367 4
  22658923.077 6 119073443.959 6        37.000 6     -2795.801 6
  22228813.456 5 116813202.391 5        31.000 5       609.083 5
  22699948.810 5 121344264.624 5        35.000 5     -2356.925 5
  19092572.087 7 101774179.211 7        44.000 7        75.504 7
  22645178.750 4 121178967.803 4        29.000 4      4780.402 4
  20807714.913 6 111307291.756 6        36.000 6     -2265.921 6
  21002121.851 5 112228971.069 5        33.000 5      3388.330 5
  21666701.624 4 115536364.922 4        28.000 4     -2941.452 4
  21283525.755 4 111845682.493 4        29.000 4     -2213.197 4
  23454236.434 3 123252843.526 3        23.000 3      2805.870 3
  21223503.633 6 111530264.659 6        40.000 6      2494.169 6
  23822804.642 7 125189681.934 7        43.000 7      4075.268 7
 16  6  6 11 11 25.0000000  0 15G12R20G19G32R01R10R21R19G14R11G06G24
                                G02G25G29
  19832855.301 8 104222357.274 8        48.000 8       201.142 8
  19766850.487 6 105702258.406 6        39.000 6      2176.525 6
  22659035.958 5 119074036.694 5        34.000 5     -2804.346 5
  22228792.926 5 116813095.188 5        31.000 5       613.713 5
  22700034.154 5 121344735.807 5        35.000 5     -2355.471 5
  19092569.072 7 101774163.922 7        45.000 7        76.202 7
  22645000.273 4 121178013.337 4        29.000 4      4787.447 4
  20807796.898 6 111307730.510 6        38.000 6     -2257.589 6
  22635783.695 5 118951846.116 5        33.000 5      1582.486 5
  21001994.426 6 112228290.224 6        36.000 6      3387.207 6
  22835763.269 5 120002745.135 5        33.000 5      1099.017 5
  21283610.856 5 111846129.405 5        33.000 5     -2242.585 5
  23454129.774 3 123252283.842 3        23.000 3      2809.881 3
  21223409.398 6 111529768.728 6        37.000 6      2498.145 6
  23822650.287 7 125188866.905 7        43.000 7      4076.031 7
 16  6  6 11 11 25.2000000  0 16G12R20R02G19G32R01R10R21R19G14R11G06
                                R09G24G25G29
  19832845.442 7 104222317.165 7        47.000 7       200.801 7
  19766769.260 6 105701822.816 6        39.000 6      2175.742 6
  22682464.385 4 121037975.619 4        28.000 4      1262.693 4
  22659152.137 6 119074647.939 6        36.000 6     -2801.221 6
  22228770.995 5 116812979.882 5        31.000 5       599.765 5
  22700120.433 6 121345207.208 6        37.000 6     -2356.920 6
  19092566.189 7 101774148.648 7        44.000 7        76.477 7
  22644821.814 5 121177057.618 5        30.000 5      4772.717 5
  20807880.568 6 111308177.779 6        37.000 6     -2277.783 6
  22635723.601 5 118951529.642 5        33.000 5      1580.368 5
  21001868.466 5 112227616.426 5        33.000 5      3383.929 5
  22835721.524 4 120002526.087 4        29.000 4      1098.151 4
  21666924.489 4 115537552.876 4        28.000 4     -2953.270 4
  21283696.270 6 111846577.837 6        36.000 6     -2230.617 6
  21223309.927 6 111529245.663 6        41.000 6      2500.767 6
  23822492.916 7 125188051.777 7        42.000 7      4075.757 7
 16  6  6 11 11 25.3999998  0 15G12R20R02G19R01R10R21R19G14R11G06R09
                                G24G25G29
  19832840.525 7 104222277.067 7        47.000 7       200.393 7
  19766689.194 6 105701387.387 6        40.000 6      2178.054 6
  22682415.389 4 121037714.271 4        28.000 4      1267.902 4
  22659255.726 5 119075191.604 5        35.000 5     -2798.779 5
  22700206.964 5 121345678.545 5        35.000 5     -2357.640 5
  19092563.322 7 101774133.417 7        45.000 7        76.619 7
  22644642.779 4 121176100.181 4        29.000 4      4823.927 4
  20807963.391 6 111308621.202 6        38.000 6     -2249.143 6
  22635663.315 5 118951213.069 5        30.000 5      1563.215 5
  21001742.008 5 112226941.666 5        33.000 5      3382.080 5
  22835674.059 5 120002276.291 5        33.000 5      1097.855 5
  21667036.350 4 115538149.643 4        28.000 4     -2958.420 4
  21283781.157 4 111847024.850 4        28.000 4     -2241.572 4
  21223217.951 6 111528745.594 6        40.000 6      2499.458 6
  23822337.077 7 125187236.699 7        43.000 7      4075.824 7
 16  6  6 11 11 25.6000000  0 13G12R20G19G32R10R21R19R11G06R09G24G25
                                G29
  19832832.577 7 104222236.975 7        47.000 7       200.294 7
  19766607.270 6 105700951.882 6        40.000 6      2177.172 6
  22659359.245 5 119075736.268 5        35.000 5     -2807.178 5
  22228721.925 5 116812722.074 5        32.000 5       618.147 5
  19092560.456 7 101774118.245 7        44.000 7        75.645 7
  22644464.460 5 121175145.693 5        30.000 5      4767.257 5
  20808046.458 6 111309065.150 6        38.000 6     -2254.668 6
  21001618.282 5 112226279.602 5        34.000 5      3372.998 5
  22835630.744 5 120002048.971 5        30.000 5      1106.639 5
  21667147.791 5 115538743.361 5        33.000 5     -2962.375 5
  21283866.999 5 111847475.501 5        35.000 5     -2248.593 5
  21223120.653 6 111528245.194 6        37.000 6      2505.112 6
  23822184.060 7 125186421.526 7        43.000 7      4076.190 7
 16  6  6 11 11 25.8000000  0 15G12R20G19G32R01R10R21R19G14R11G06R09
                                G24G25G29
  19832826.766 8 104222196.992 8        48.000 8       199.456 8
  19766522.108 6 105700516.435 6        40.000 6      2175.990 6
  22659458.969 5 119076260.176 5        32.000 5     -2803.760 5
  22228697.539 5 116812593.212 5        33.000 5       620.645 5
  22700386.841 4 121346598.631 4        28.000 4     -2375.571 4
  19092557.738 7 101774103.164 7        46.000 7        74.251 7
  22644285.015 5 121174185.195 5        30.000 5      4766.209 5
  20808128.828 6 111309505.763 6        41.000 6     -2257.753 6
  22635543.018 5 118950581.195 5        30.000 5      1583.734 5
  21001491.083 5 112225599.817 5        33.000 5      3389.404 5
  22835587.847 5 120001823.701 5        34.000 5      1099.170 5
  21667258.316 5 115539333.517 5        32.000 5     -2965.069 5
  21283951.637 5 111847920.305 5        35.000 5     -2252.539 5
  21223025.864 5 111527752.766 5        34.000 5      2503.320 5
  23822029.914 7 125185606.222 7        44.000 7      4076.349 7
 16  6  6 11 11 26.0000000  0 16G12R20R02G19G32R01R10R21R19G14R11G06
                                R09G24G25G29
  19832815.798 8 104222157.002 8        49.000 8       199.651 8
  19766440.804 6 105700080.963 6        41.000 6      2176.922 6
  22682273.069 4 121036955.135 4        28.000 4      1270.917 4
  22659571.776 5 119076853.253 5        32.000 5     -2808.398 5
  22228674.360 5 116812471.900 5        32.000 5       608.816 5
  22700475.606 5 121347072.775 5        32.000 5     -2382.064 5
  19092555.204 7 101774088.083 7        47.000 7        75.503 7
  22644105.762 5 121173226.582 5        30.000 5      4784.153 5
  20808215.656 6 111309970.657 6        36.000 6     -2256.739 6
  22635483.399 5 118950267.210 5        30.000 5      1582.063 5
  21001365.542 6 112224929.170 6        36.000 6      3392.383 6
  22835541.734 6 120001581.213 6        39.000 6      1095.398 6
  21667370.150 5 115539929.414 5        32.000 5     -2987.284 5
  21284040.319 5 111848386.050 5        35.000 5     -2231.836 5
  21222929.534 6 111527247.213 6        41.000 6      2503.320 6
  23821876.073 7 125184790.835 7        44.000 7      4077.460 7
 16  6  6 11 11 26.2000000  0 15G12R20R02G19G32R10R21R19G14R11G06G24
                                G02G25G29
  19832808.565 8 104222117.008 8        49.000 8       200.617 8
  19766359.821 6 105699645.557 6        41.000 6      2178.820 6
  22682225.321 4 121036699.741 4        28.000 4      1263.833 4
  22659688.382 6 119077465.213 6        37.000 6     -2826.953 6
  22228652.988 5 116812359.160 5        32.000 5       608.285 5
  19092552.372 7 101774073.083 7        46.000 7        75.430 7
  22643928.638 5 121172278.189 5        31.000 5      4786.341 5
  20808299.412 6 111310418.112 6        37.000 6     -2270.996 6
  22635422.877 5 118949949.518 5        34.000 5      1575.958 5
  21001240.908 6 112224263.905 6        37.000 6      3394.873 6
  22835500.809 5 120001366.327 5        30.000 5      1091.699 5
  21284128.721 6 111848851.075 6        37.000 6     -2234.180 6
  23453489.395 4 123248917.908 4        25.000 4      2819.426 4
  21222838.562 6 111526768.712 6        41.000 6      2503.876 6
  23821718.236 7 125183975.370 7        44.000 7      4078.027 7
 16  6  6 11 11 26.3999998  0 15G12R20G19G32R01R10R21R19G14R11G06R09
                                G24G25G29
  19832801.965 8 104222077.148 8        49.000 8       199.253 8
  19766274.948 6 105699210.207 6        39.000 6      2175.751 6
  22659806.887 5 119078088.233 5        33.000 5     -2855.713 5
  22228623.776 5 116812205.897 5        35.000 5       590.626 5
  22700652.647 5 121348018.631 5        33.000 5     -2353.745 5
  19092549.698 7 101774058.106 7        46.000 7        74.573 7
  22643751.104 5 121171328.126 5        35.000 5      4789.363 5
  20808381.721 6 111310858.420 6        40.000 6     -2273.877 6
  22635363.398 5 118949636.562 5        34.000 5      1580.017 5
  21001111.946 5 112223574.740 5        34.000 5      3379.199 5
  22835454.060 6 120001120.315 6        37.000 6      1091.602 6
  21667593.068 5 115541118.669 5        32.000 5     -2986.172 5
  21284210.397 5 111849279.768 5        35.000 5     -2245.068 5
  21222742.354 6 111526268.517 6        41.000 6      2499.256 6
  23821564.229 7 125183159.846 7        45.000 7      4077.936 7
 16  6  6 11 11 26.6000000  0 14G12R20R02R01R10R21R19G14R11G06G24G02
                                G25G29
  19832792.646 8 104222037.251 8        49.000 8       198.732 8
  19766194.934 6 105698774.770 6        37.000 6      2175.066 6
  22682133.891 5 121036211.711 5        32.000 5      1224.515 5
  22700742.319 5 121348498.856 5        33.000 5     -2373.647 5
  19092546.867 7 101774043.201 7        46.000 7        74.008 7
  22643572.313 5 121170371.748 5        35.000 5      4776.850 5
  20808468.235 6 111311321.321 6        41.000 6     -2272.705 6
  22635306.942 5 118949339.945 5        34.000 5      1585.133 5
  21000984.695 5 112222893.871 5        35.000 5      3386.426 5
  22835409.841 6 120000888.628 6        40.000 6      1099.512 6
  21284296.414 6 111849732.114 6        38.000 6     -2244.531 6
  23453274.495 5 123247788.696 5        31.000 5      2823.730 5
  21222648.852 7 111525772.200 7        42.000 7      2501.318 7
  23821409.441 7 125182344.180 7        45.000 7      4078.381 7
 16  6  6 11 11 26.8000000  0 16G12R20R02G32R01R10R21R19G14R11G06R09
                                G24G02G25G29
  19832785.304 8 104221997.345 8        49.000 8       199.620 8
  19766117.503 6 105698339.238 6        39.000 6      2177.502 6
  22682088.010 5 121035967.274 5        32.000 5      1207.975 5
  22228577.324 5 116811961.346 5        33.000 5       620.572 5
  22700833.082 4 121348983.371 4        29.000 4     -2386.133 4
  19092544.105 7 101774028.305 7        47.000 7        74.987 7
  22643392.851 6 121169411.443 6        37.000 6      4769.915 6
  20808549.470 6 111311756.087 6        40.000 6     -2278.955 6
  22635250.042 5 118949040.824 5        30.000 5      1580.762 5
  21000858.019 6 112222217.835 6        36.000 6      3383.944 6
  22835368.131 5 120000668.821 5        34.000 5      1093.408 5
  21667815.463 5 115542304.463 5        34.000 5     -2961.215 5
  21284383.499 6 111850190.198 6        37.000 6     -2229.102 6
  23453167.687 5 123247227.201 5        31.000 5      2821.072 5
  21222556.867 7 111525288.776 7        42.000 7      2501.459 7
  23821255.177 7 125181528.294 7        45.000 7      4079.523 7
 16  6  6 11 11 27.0000000  0 15G12R20G19G32R01R10R21R19G14R11G06R09
                                G24G25G29
  19832779.127 8 104221957.493 8        50.000 8       199.079 8
  19766038.292 6 105697903.801 6        41.000 6      2177.603 6
  22660139.750 5 119079837.953 5        35.000 5     -2837.076 5
  22228556.947 5 116811855.142 5        35.000 5       621.939 5
  22700921.742 5 121349457.310 5        32.000 5     -2395.228 5
  19092541.414 7 101774013.502 7        47.000 7        74.310 7
  22643214.304 5 121168455.639 5        33.000 5      4772.702 5
  20808640.625 5 111312243.800 5        33.000 5     -2285.840 5
  22635191.330 5 118948732.885 5        30.000 5      1579.254 5
  21000730.253 6 112221540.762 6        39.000 6      3384.854 6
  22835333.950 5 120000489.814 5        32.000 5      1087.363 5
  21667927.070 5 115542899.091 5        30.000 5     -2965.156 5
  21284469.302 6 111850640.651 6        38.000 6     -2232.178 6
  21222458.692 6 111524788.843 6        39.000 6      2505.115 6
  23821098.988 7 125180712.265 7        43.000 7      4080.811 7
 16  6  6 11 11 27.2000000  0 17G12R20R02G19G32R01R10R21R19G14R11G06
                                R09G24G02G25G29
  19832773.643 8 104221917.627 8        51.000 8       198.821 8
  19765956.682 7 105697468.375 7        43.000 7      2177.338 7
  22681995.794 5 121035475.254 5        32.000 5      1221.301 5
  22660250.877 5 119080421.472 5        32.000 5     -2836.230 5
  22228531.186 5 116811719.052 5        33.000 5       621.741 5
  22701010.577 5 121349932.436 5        32.000 5     -2393.823 5
  19092538.713 7 101773998.722 7        47.000 7        73.589 7
  22643034.676 6 121167494.568 6        36.000 6      4771.560 6
  20808727.610 6 111312708.958 6        36.000 6     -2289.502 6
  22635129.639 6 118948409.088 6        37.000 6      1578.490 6
  21000603.290 5 112220856.433 5        33.000 5      3388.578 5
  22835291.001 6 120000264.010 6        36.000 6      1082.159 6
  21668037.394 5 115543487.820 5        35.000 5     -2963.222 5
  21284556.021 5 111851096.503 5        34.000 5     -2234.905 5
  23452952.294 4 123246095.296 4        25.000 4      2829.487 4
  21222365.656 7 111524283.732 7        42.000 7      2499.951 7
  23820943.559 6 125179896.116 6        40.000 6      4081.097 6
 16  6  6 11 11 27.3999998  0 14G12R20G32R10R21R19G14R11G06R09G24G02
                                G25G29
  19832764.726 8 104221877.823 8        50.000 8       199.135 8
  19765872.507 7 105697032.878 7        43.000 7      2177.220 7
  22228508.614 6 116811600.878 6        36.000 6       627.202 6
  19092535.978 7 101773984.005 7        47.000 7        73.074 7
  22642857.919 6 121166540.354 6        36.000 6      4770.869 6
  20808814.307 6 111313172.390 6        36.000 6     -2277.930 6
  22635070.837 5 118948099.980 5        30.000 5      1575.843 5
  21000478.141 5 112220186.982 5        34.000 5      3387.265 5
  22835253.640 5 120000067.092 5        33.000 5      1088.605 5
  21668148.120 5 115544077.993 5        31.000 5     -2961.218 5
  21284641.383 6 111851544.667 6        37.000 6     -2240.967 6
  23452843.117 4 123245521.797 4        26.000 4      2854.131 4
  21222271.085 6 111523786.738 6        38.000 6      2499.251 6
  23820789.308 6 125179079.746 6        41.000 6      4082.574 6
 16  6  6 11 11 27.6000000  0 16G12R20R02G32R01R10R21R19G14R11G06R09
                                G24G02G25G29
  19832758.531 8 104221838.054 8        51.000 8       198.925 8
  19765791.350 7 105696597.441 7        43.000 7      2177.055 7
  22681901.318 4 121034971.377 4        28.000 4      1258.601 4
  22228484.493 7 116811473.538 7        42.000 7       616.260 7
  22701191.666 5 121350900.505 5        32.000 5     -2392.456 5
  19092533.190 7 101773969.343 7        46.000 7        72.496 7
  22642675.734 6 121165573.916 6        37.000 6      4769.775 6
  20808897.959 6 111313620.729 6        36.000 6     -2281.983 6
  22635011.004 5 118947785.048 5        34.000 5      1587.317 5
  21000356.299 5 112219536.750 5        34.000 5      3371.289 5
  22835212.375 6 119999849.191 6        37.000 6      1089.635 6
  21668258.297 5 115544665.600 5        32.000 5     -2963.371 5
  21284727.862 6 111851999.246 6        41.000 6     -2242.992 6
  23452735.563 5 123244956.799 5        32.000 5      2857.907 5
  21222175.715 6 111523286.155 6        40.000 6      2506.439 6
  23820632.815 6 125178263.296 6        40.000 6      4082.165 6
 16  6  6 11 11 27.8000000  0 14G12R20G32R01R10R21R19G14R11G06R09G24
                                G25G29
  19832749.186 8 104221798.292 8        51.000 8       198.856 8
  19765710.106 6 105696161.757 6        37.000 6      2180.319 6
  22228458.567 6 116811337.557 6        40.000 6       609.231 6
  22701284.026 5 121351394.284 5        32.000 5     -2394.404 5
  19092530.246 7 101773954.663 7        46.000 7        73.492 7
  22642496.926 6 121164617.188 6        37.000 6      4788.377 6
  20808984.325 6 111314081.818 6        36.000 6     -2299.512 6
  22634952.834 5 118947479.206 5        34.000 5      1588.889 5
  21000233.262 5 112218879.195 5        34.000 5      3374.158 5
  22835173.251 5 119999644.773 5        34.000 5      1079.338 5
  21668365.760 5 115545257.708 5        34.000 5     -2956.448 5
  21284810.305 5 111852432.682 5        33.000 5     -2236.394 5
  21222081.816 7 111522792.487 7        42.000 7      2505.225 7
  23820477.848 6 125177446.543 6        41.000 6      4084.314 6
 16  6  6 11 11 28.0000000  0 14G12R20R02G32R10R21R19R11G06R09G24G02
                                G25G29
  19832741.814 8 104221758.659 8        51.000 8       197.935 8
  19765629.447 6 105695718.465 6        40.000 6      2177.927 6
  22681809.356 4 121034480.800 4        28.000 4      1230.388 4
  22228435.720 5 116811218.050 5        35.000 5       625.488 5
  19092527.493 7 101773940.238 7        45.000 7        72.172 7
  22642319.252 6 121163666.752 6        38.000 6      4777.686 6
  20809082.853 6 111314609.794 6        40.000 6     -2302.930 6
  21000109.353 5 112218216.953 5        34.000 5      3369.759 5
  22835136.654 6 119999452.723 6        36.000 6      1079.950 6
  21668474.741 5 115545819.592 5        35.000 5     -2948.465 5
  21284894.533 6 111852875.063 6        38.000 6     -2242.333 6
  23452519.163 4 123243819.919 4        28.000 4      2848.733 4
  21221984.701 6 111522282.312 6        36.000 6      2516.309 6
  23820321.062 6 125176629.675 6        41.000 6      4084.363 6
 16  6  6 11 11 28.2000000  0 14G12R20G32R10R21R19G14R11G06R09G24G02
                                G25G29
  19832732.788 8 104221718.985 8        51.000 8       198.251 8
  19765549.067 6 105695289.084 6        38.000 6      2175.978 6
  22228408.506 6 116811074.785 6        41.000 6       629.394 6
  19092524.784 7 101773925.780 7        44.000 7        71.872 7
  22642140.444 5 121162709.822 5        34.000 5      4781.787 5
  20809170.501 6 111315078.392 6        36.000 6     -2294.580 6
  22634835.119 5 118946861.266 5        34.000 5      1575.420 5
  20999987.101 5 112217563.528 5        34.000 5      3383.887 5
  22835096.352 6 119999240.510 6        36.000 6      1092.334 6
  21668583.530 6 115546399.521 6        38.000 6     -2959.828 6
  21284974.791 6 111853296.807 6        36.000 6     -2247.162 6
  23452409.231 4 123243241.668 4        28.000 4      2841.333 4
  21221885.051 6 111521758.140 6        39.000 6      2500.635 6
  23820167.291 6 125175812.597 6        41.000 6      4085.205 6
 16  6  6 11 11 28.3999998  0 16G12R20R02G32R01R10R21R19G14R11G06R09
                                G24G02G25G29
  19832725.829 8 104221679.397 8        51.000 8       197.683 8
  19765466.296 6 105694853.535 6        36.000 6      2174.983 6
  22681715.814 4 121033981.547 4        29.000 4      1233.487 4
  22228387.060 7 116810961.983 7        44.000 7       610.638 7
  22701546.517 5 121352796.876 5        32.000 5     -2381.973 5
  19092522.170 7 101773911.412 7        43.000 7        72.018 7
  22641965.152 6 121161771.265 6        37.000 6      4783.105 6
  20809254.825 6 111315529.181 6        36.000 6     -2290.088 6
  22634774.702 5 118946543.326 5        31.000 5      1581.986 5
  20999859.082 5 112216878.939 5        30.000 5      3381.243 5
  22835055.977 6 119999028.189 6        40.000 6      1091.486 6
  21668692.676 5 115546982.027 5        35.000 5     -2964.111 5
  21285064.398 6 111853767.369 6        38.000 6     -2243.445 6
  23452300.834 5 123242671.999 5        33.000 5      2843.396 5
  21221791.095 6 111521264.168 6        40.000 6      2508.057 6
  23820009.903 6 125174995.466 6        41.000 6      4086.456 6
 16  6  6 11 11 28.6000000  0 17G12R20R02G19G32R01R10R21R19G14R11G06
                                R09G24G02G25G29
  19832718.435 8 104221639.729 8        51.000 8       198.312 8
  19765385.646 5 105694417.948 5        32.000 5      2179.240 5
  22681667.987 5 121033725.492 5        33.000 5      1219.403 5
  22660993.698 5 119084324.691 5        31.000 5     -2792.376 5
  22228362.281 7 116810839.999 7        44.000 7       607.627 7
  22701632.097 5 121353254.628 5        32.000 5     -2371.628 5
  19092519.470 7 101773897.056 7        45.000 7        72.129 7
  22641786.816 6 121160817.306 6        38.000 6      4773.047 6
  20809344.558 6 111316008.866 6        38.000 6     -2293.653 6
  22634724.524 5 118946279.564 5        34.000 5      1578.104 5
  20999735.224 6 112216217.885 6        36.000 6      3380.050 6
  22835013.839 6 119998807.069 6        36.000 6      1096.628 6
  21668804.545 6 115547578.305 6        38.000 6     -2957.093 6
  21285153.599 6 111854237.034 6        38.000 6     -2235.706 6
  23452186.732 6 123242072.833 6        36.000 6      2839.622 6
  21221701.235 7 111520792.256 7        43.000 7      2503.172 7
  23819854.644 6 125174178.129 6        41.000 6      4087.054 6
 16  6  6 11 11 28.8000000  0 14G12R20G32R01R10R21R19G14R11R09G24G02
                                G25G29
  19832711.799 8 104221600.146 8        51.000 8       198.038 8
  19765303.590 5 105693976.413 5        31.000 5      2184.814 5
  22228338.653 7 116810718.225 7        45.000 7       608.358 7
  22701723.200 5 121353741.460 5        32.000 5     -2370.790 5
  19092516.918 7 101773882.707 7        44.000 7        72.081 7
  22641611.873 6 121159881.376 6        41.000 6      4795.557 6
  20809430.950 5 111316471.209 5        33.000 5     -2284.033 5
  22634674.071 6 118946014.115 6        38.000 6      1574.487 6
  20999606.184 6 112215528.094 6        37.000 6      3376.904 6
  21668911.807 5 115548150.130 5        33.000 5     -2963.623 5
  21285239.061 5 111854686.010 5        35.000 5     -2238.452 5
  23452075.866 5 123241489.696 5        32.000 5      2819.678 5
  21221604.125 7 111520292.162 7        44.000 7      2502.504 7
  23819699.333 6 125173360.651 6        41.000 6      4087.744 6
 16  6  6 11 11 29.1000000  0 16G12R20R02G32R01R10R21R19G14R11G06R09
                                G24G02G25G29
  19832700.775 8 104221540.852 8        51.000 8       197.661 8
  19765179.096 6 105693311.143 6        37.000 6      2179.297 6
  22681537.399 6 121033028.664 6        37.000 6      1247.651 6
  22228314.537 6 116810580.383 6        38.000 6       616.211 6
  22701864.909 5 121354499.816 5        32.000 5     -2377.363 5
  19092512.900 7 101773861.411 7        44.000 7        71.175 7
  22641339.636 6 121158424.414 6        38.000 6      4775.956 6
  20809560.819 5 111317165.994 5        35.000 5     -2278.809 5
  22634586.366 6 118945553.273 6        39.000 6      1575.439 6
  20999423.424 6 112214551.267 6        37.000 6      3382.253 6
  22834914.556 5 119998285.358 5        34.000 5      1087.611 5
  21669073.802 5 115549014.361 5        35.000 5     -2968.799 5
  21285368.189 6 111855364.633 6        38.000 6     -2239.990 6
  23451881.209 7 123240466.577 7        42.000 7      2828.933 7
  21221458.380 6 111519541.279 6        40.000 6      2503.035 6
  23819467.048 6 125172134.233 6        41.000 6      4088.739 6
 16  6  6 11 11 29.3999998  0 15G12R20R02G32R01R10R21R19G14R11R09G24
                                G02G25G29
  19832689.293 8 104221481.673 8        51.000 8       197.042 8
  19765061.634 4 105692682.081 4        29.000 4      2169.724 4
  22681437.378 6 121032495.746 6        41.000 6      1246.311 6
  22228283.654 6 116810418.168 6        37.000 6       608.252 6
  22701999.952 5 121355220.919 5        32.000 5     -2376.581 5
  19092508.917 7 101773840.219 7        44.000 7        69.781 7
  22641068.778 6 121156974.880 6        38.000 6      4780.213 6
  20809684.432 5 111317827.311 5        35.000 5     -2276.953 5
  22634492.811 6 118945061.722 6        36.000 6      1573.209 6
  20999238.587 6 112213536.078 6        37.000 6      3381.376 6
  21669234.523 5 115549870.677 5        32.000 5     -2960.107 5
  21285488.831 6 111855998.248 6        41.000 6     -2243.833 6
  23451718.010 6 123239618.374 6        41.000 6      2827.053 6
  21221322.098 6 111518799.930 6        40.000 6      2503.567 6
  23819232.404 6 125170907.693 6        39.000 6      4089.020 6
 16  6  6 11 11 29.6000000  0 16G12R20R02G32R01R10R21R19G14R11G06R09
                                G24G02G25G29
  19832681.728 8 104221442.322 8        51.000 8       196.682 8
  19764978.296 5 105692236.758 5        34.000 5      2174.489 5
  22681379.945 6 121032246.846 6        39.000 6      1246.518 6
  22228272.329 6 116810358.970 6        40.000 6       617.178 6
  22702091.160 5 121355708.462 5        35.000 5     -2385.173 5
  19092506.190 7 101773826.199 7        44.000 7        69.880 7
  22640888.409 6 121156009.142 6        40.000 6      4778.174 6
  20809774.279 6 111318308.068 6        37.000 6     -2302.735 6
  22634428.298 6 118944722.783 6        36.000 6      1578.076 6
  20999112.670 6 112212890.969 6        37.000 6      3384.717 6
  22834807.900 4 119997725.420 4        29.000 4      1085.670 4
  21669341.995 6 115550443.749 6        38.000 6     -2967.028 6
  21285577.168 7 111856462.923 7        46.000 7     -2241.140 7
  23451620.489 6 123239097.245 6        37.000 6      2826.806 6
  21221222.933 5 111518278.220 5        34.000 5      2504.058 5
  23819075.513 6 125170089.835 6        39.000 6      4089.240 6
 16  6  6 11 11 29.8000000  0 16G12R20R02G32R01R10R21R19G14R11G06R09
                                G24G02G25G29
  19832674.770 8 104221402.968 8        51.000 8       196.470 8
  19764896.765 5 105691801.639 5        34.000 5      2179.028 5
  22681330.871 5 121031927.016 5        34.000 5      1230.842 5
  22228261.798 6 116810303.962 6        40.000 6       606.299 6
  22702184.008 5 121356204.979 5        32.000 5     -2385.827 5
  19092503.673 7 101773812.162 7        44.000 7        71.057 7
  22640710.874 6 121155053.485 6        40.000 6      4778.553 6
  20809862.363 5 111318779.508 5        32.000 5     -2291.992 5
  22634368.897 5 118944411.221 5        34.000 5      1575.537 5
  20998984.171 6 112212204.557 6        37.000 6      3379.640 6
  22834766.408 6 119997507.266 6        36.000 6      1086.403 6
  21669447.547 6 115551037.021 6        41.000 6     -2965.591 6
  21285664.934 6 111856911.450 6        38.000 6     -2242.969 6
  23451512.425 6 123238529.524 6        37.000 6      2825.383 6
  21221128.628 5 111517783.376 5        32.000 5      2495.337 5
  23818919.740 7 125169271.759 7        42.000 7      4091.083 7
 16  6  6 11 11 30.0000000  0 15G12R20R02G32R01R10R21R19G14R11G06R09
                                G24G25G29
  19832667.175 8 104221363.660 8        51.000 8       196.202 8
  19764812.022 7 105691366.145 7        43.000 7      2174.659 7
  22681286.194 6 121031688.914 6        39.000 6      1231.195 6
  22228240.544 6 116810192.300 6        38.000 6       609.814 6
  22702274.090 6 121356686.350 6        37.000 6     -2381.153 6
  19092501.112 7 101773798.270 7        44.000 7        69.175 7
  22640533.637 6 121154111.433 6        39.000 6      4781.006 6
  20809950.910 6 111319252.822 6        38.000 6     -2282.862 6
  22634310.203 5 118944102.267 5        35.000 5      1563.476 5
  20998858.124 6 112211530.881 6        40.000 6      3382.324 6
  22834715.118 6 119997237.751 6        39.000 6      1088.621 6
  21669558.203 5 115551630.417 5        35.000 5     -2969.728 5
  21285748.429 4 111857358.147 4        29.000 4     -2227.408 4
  21221027.329 7 111517250.632 7        43.000 7      2502.376 7
  23818763.333 7 125168453.879 7        43.000 7      4089.557 7
 16  6  6 11 11 30.2000000  0 16G12R20R02G32R01R10R21R19G14R11G06R09
                                G24G02G25G29
  19832658.903 8 104221323.891 8        50.000 8       197.003 8
  19764724.374 8 105690930.678 8        48.000 8      2177.600 8
  22681245.216 6 121031470.048 6        37.000 6      1237.207 6
  22228214.735 5 116810055.879 5        35.000 5       609.814 5
  22702369.626 6 121357197.034 6        36.000 6     -2397.561 6
  19092498.368 7 101773784.357 7        44.000 7        69.583 7
  22640357.612 5 121153169.559 5        33.000 5      4776.497 5
  20810035.766 5 111319706.570 5        34.000 5     -2286.280 5
  22634258.507 6 118943830.759 6        36.000 6      1573.525 6
  20998731.580 6 112210854.535 6        38.000 6      3384.665 6
  22834675.606 6 119997030.137 6        36.000 6      1094.029 6
  21669670.255 6 115552194.942 6        40.000 6     -2966.797 6
  21285832.386 6 111857804.115 6        39.000 6     -2246.489 6
  23451303.833 5 123237433.301 5        34.000 5      2819.001 5
  21220936.885 6 111516750.003 6        36.000 6      2506.590 6
  23818608.637 7 125167635.828 7        44.000 7      4090.259 7
 16  6  6 11 11 30.3999998  0 16G12R20R02G32R01R10R21R19G14R11G06R09
                                G24G02G25G29
  19832651.138 8 104221284.648 8        50.000 8       195.878 8
  19764641.638 7 105690495.445 7        45.000 7      2177.208 7
  22681197.294 6 121031214.355 6        36.000 6      1236.323 6
  22228187.935 5 116809915.160 5        35.000 5       607.611 5
  22702461.227 6 121357675.771 6        39.000 6     -2387.079 6
  19092495.668 7 101773770.477 7        45.000 7        69.772 7
  22640180.506 5 121152221.457 5        35.000 5      4795.068 5
  20810117.812 5 111320145.582 5        34.000 5     -2284.180 5
  22634196.655 5 118943517.084 5        33.000 5      1567.201 5
  20998605.244 5 112210179.587 5        35.000 5      3379.639 5
  22834635.872 6 119996821.278 6        37.000 6      1084.384 6
  21669782.761 6 115552794.260 6        40.000 6     -2968.968 6
  21285910.803 7 111858215.664 7        42.000 7     -2243.901 7
  23451201.091 6 123236892.954 6        37.000 6      2811.157 6
  21220844.914 6 111516292.283 6        41.000 6      2509.668 6
  23818452.698 7 125166817.846 7        44.000 7      4090.265 7
 16  6  6 11 11 30.6000000  0 16G12R20R02G32R01R10R21R19G14R11G06R09
                                G24G02G25G29
  19832643.861 8 104221245.478 8        50.000 8       195.853 8
  19764561.912 6 105690059.921 6        41.000 6      2177.677 6
  22681152.591 5 121030975.690 5        33.000 5      1240.186 5
  22228166.685 5 116809804.101 5        33.000 5       610.903 5
  22702551.021 6 121358152.330 6        39.000 6     -2380.661 6
  19092493.090 7 101773756.753 7        45.000 7        68.800 7
  22640007.325 5 121151294.615 5        35.000 5      4796.506 5
  20810198.297 5 111320576.268 5        31.000 5     -2281.494 5
  22634138.410 6 118943199.448 6        36.000 6      1574.414 6
  20998480.000 5 112209509.685 5        35.000 5      3373.871 5
  22834594.244 6 119996602.318 6        36.000 6      1078.486 6
  21669888.941 6 115553360.551 6        40.000 6     -2964.111 6
  21285995.733 6 111858664.462 6        41.000 6     -2243.123 6
  23451087.381 5 123236295.511 5        30.000 5      2812.599 5
  21220753.675 5 111515812.571 5        35.000 5      2514.204 5
  23818296.907 7 125165999.772 7        45.000 7      4089.789 7
 16  6  6 11 11 30.8000000  0 16G12R20R02G32R01R10R21R19G14R11G06R09
                                G24G02G25G29
  19832636.571 8 104221206.361 8        50.000 8       195.599 8
  19764482.981 8 105689624.905 8        49.000 8      2175.066 8
  22681112.948 4 121030764.322 4        29.000 4      1227.100 4
  22228145.985 6 116809694.983 6        37.000 6       614.288 6
  22702644.620 6 121358666.944 6        39.000 6     -2397.266 6
  19092490.538 7 101773743.042 7        44.000 7        68.546 7
  22639829.529 5 121150333.378 5        31.000 5      4809.701 5
  20810279.471 5 111321010.062 5        34.000 5     -2284.082 5
  22634077.657 6 118942880.412 6        36.000 6      1574.664 6
  20998350.689 5 112208833.749 5        32.000 5      3375.446 5
  22834553.808 6 119996389.673 6        40.000 6      1079.645 6
  21669995.619 6 115553929.376 6        40.000 6     -2962.991 6
  21286072.344 6 111859064.227 6        38.000 6     -2244.492 6
  23450982.614 6 123235744.618 6        36.000 6      2825.666 6
  21220657.799 6 111515308.684 6        41.000 6      2497.754 6
  23818141.652 7 125165181.745 7        43.000 7      4090.014 7
 16  6  6 11 11 31.0000000  0 17G12R20R02G19G32R01R10R21R19G14R11G06
                                R09G24G02G25G29
  19832629.055 8 104221167.178 8        50.000 8       195.623 8
  19764398.578 7 105689189.522 7        42.000 7      2177.417 7
  22681075.539 5 121030564.348 5        33.000 5      1220.892 5
  22662291.798 5 119091146.742 5        33.000 5     -2822.283 5
  22228120.242 6 116809559.636 6        37.000 6       615.920 6
  22702740.722 7 121359181.309 7        43.000 7     -2395.247 7
  19092487.802 7 101773729.307 7        44.000 7        68.546 7
  22639652.440 5 121149395.239 5        31.000 5      4792.692 5
  20810361.422 5 111321449.238 5        33.000 5     -2279.102 5
  22634020.560 5 118942580.424 5        32.000 5      1576.258 5
  20998220.864 5 112208125.274 5        32.000 5      3383.541 5
  22834510.261 6 119996160.871 6        40.000 6      1086.215 6
  21670109.198 7 115554522.674 7        42.000 7     -2965.396 7
  21286155.307 5 111859512.836 5        32.000 5     -2242.212 5
  23450870.113 6 123235154.201 6        38.000 6      2825.339 6
  21220561.867 5 111514805.248 5        34.000 5      2513.721 5
  23817986.070 7 125164363.846 7        42.000 7      4089.722 7
 16  6  6 11 11 31.2000000  0 17G12R20R02G19G32R01R10R21R19G14R11G06
                                R09G24G02G25G29
  19832621.377 8 104221127.962 8        50.000 8       195.900 8
  19764319.621 8 105688714.520 8        48.000 8      2175.852 8
  22681029.309 5 121030317.629 5        33.000 5      1230.176 5
  22662396.774 5 119091698.382 5        34.000 5     -2813.086 5
  22228091.802 5 116809409.909 5        35.000 5       610.742 5
  22702829.836 5 121359660.952 5        35.000 5     -2402.700 5
  19092485.189 7 101773715.527 7        43.000 7        69.379 7
  22639470.046 5 121148420.019 5        34.000 5      4781.792 5
  20810446.348 6 111321902.645 6        36.000 6     -2286.426 6
  22633956.405 5 118942243.287 5        33.000 5      1572.119 5
  20998094.389 5 112207449.370 5        32.000 5      3385.740 5
  22834471.574 6 119995958.016 6        36.000 6      1071.338 6
  21670221.965 6 115555136.260 6        36.000 6     -2969.105 6
  21286241.869 6 111859961.891 6        39.000 6     -2245.892 6
  23450758.047 6 123234588.885 6        40.000 6      2823.314 6
  21220469.773 5 111514320.838 5        34.000 5      2502.832 5
  23817830.558 7 125163545.856 7        44.000 7      4089.990 7
 16  6  6 11 11 31.3999998  0 17G12R20R02G19G32R01R10R21R19G14R11G06
                                R09G24G02G25G29
  19832613.742 8 104221088.713 8        49.000 8       196.193 8
  19764236.998 7 105688279.316 7        47.000 7      2174.066 7
  22680983.437 5 121030072.689 5        30.000 5      1242.736 5
  22662498.042 6 119092230.732 6        38.000 6     -2821.191 6
  22228048.792 7 116809184.070 7        43.000 7       616.113 7
  22702919.849 6 121360140.512 6        39.000 6     -2400.921 6
  19092482.768 7 101773701.777 7        45.000 7        69.233 7
  22639288.455 6 121147448.122 6        40.000 6      4778.462 6
  20810532.268 5 111322362.568 5        32.000 5     -2288.574 5
  22633895.870 4 118941924.683 4        28.000 4      1567.969 4
  20997970.000 5 112206784.913 5        32.000 5      3382.179 5
  22834432.673 5 119995753.130 5        34.000 5      1084.814 5
  21670333.721 5 115555732.136 5        32.000 5     -2956.940 5
  21286331.266 7 111860410.519 7        43.000 7     -2243.562 7
  23450647.252 6 123233982.552 6        38.000 6      2815.039 6
  21220372.488 5 111513809.445 5        34.000 5      2508.057 5
  23817675.077 7 125162727.912 7        43.000 7      4089.215 7
 16  6  6 11 11 31.7000000  0 17G12R20R02G19G32R01R10R21R19G14R11G06
                                R09G24G02G25G29
  19832602.753 8 104221029.939 8        50.000 8       196.193 8
  19764112.617 7 105687627.124 7        44.000 7      2170.743 7
  22680916.232 5 121029714.516 5        34.000 5      1217.864 5
  22662648.323 6 119093020.278 6        37.000 6     -2811.426 6
  22227994.474 6 116808899.164 6        41.000 6       625.095 6
  22703049.360 5 121360830.684 5        35.000 5     -2396.777 5
  19092478.924 7 101773681.263 7        45.000 7        67.997 7
  22639016.053 6 121145990.076 6        38.000 6      4778.857 6
  20810659.380 6 111323042.218 6        36.000 6     -2276.221 6
  22633802.869 4 118941436.431 4        29.000 4      1577.183 4
  20997776.403 5 112205749.896 5        31.000 5      3385.306 5
  22834364.905 7 119995396.588 7        42.000 7      1086.276 7
  21670501.998 6 115556630.246 6        36.000 6     -2969.238 6
  21286458.666 5 111861083.138 5        33.000 5     -2236.368 5
  23450483.961 6 123233124.448 6        36.000 6      2827.100 6
  21220229.305 5 111513057.518 5        33.000 5      2507.324 5
  23817441.794 7 125161501.289 7        43.000 7      4087.726 7
 16  6  6 11 11 31.8999998  0 17G12R20R02G19G32R01R10R21R19G14R11G06
                                R09G24G02G25G29
  19832595.481 8 104220990.654 8        51.000 8       196.927 8
  19764033.625 7 105687192.091 7        46.000 7      2175.651 7
  22680872.759 5 121029482.233 5        34.000 5      1211.630 5
  22662752.444 6 119093567.849 6        38.000 6     -2811.494 6
  22227967.818 6 116808774.003 6        41.000 6       626.063 6
  22703137.025 5 121361299.830 5        35.000 5     -2389.844 5
  19092476.460 7 101773667.508 7        45.000 7        68.814 7
  22638838.117 6 121145038.412 6        38.000 6      4790.959 6
  20810738.085 6 111323463.918 6        36.000 6     -2280.371 6
  22633732.466 5 118941066.050 5        30.000 5      1591.136 5
  20997649.439 5 112205071.296 5        31.000 5      3372.851 5
  22834323.430 6 119995179.551 6        38.000 6      1087.094 6
  21670614.172 5 115557228.081 5        32.000 5     -2974.463 5
  21286545.119 6 111861549.425 6        37.000 6     -2239.412 6
  23450380.202 5 123232579.021 5        35.000 5      2828.223 5
  21220137.024 5 111512572.219 5        34.000 5      2516.250 5
  23817286.181 7 125160683.694 7        44.000 7      4087.463 7
 16  6  6 11 11 32.1000000  0 17G12R20R02G19G32R01R10R21R19G14R11G06
                                R09G24G02G25G29
  19832587.977 8 104220951.412 8        51.000 8       196.357 8
  19763949.833 7 105686757.581 7        46.000 7      2175.125 7
  22680828.675 5 121029246.782 5        34.000 5      1207.625 5
  22662860.064 6 119094133.182 6        37.000 6     -2820.103 6
  22227949.984 6 116808649.682 6        40.000 6       630.250 6
  22703226.549 6 121361778.063 6        38.000 6     -2402.490 6
  19092473.838 7 101773653.793 7        45.000 7        68.709 7
  22638660.496 6 121144087.597 6        37.000 6      4800.586 6
  20810824.389 6 111323925.854 6        38.000 6     -2285.108 6
  22633672.695 4 118940752.413 4        29.000 4      1595.388 4
  20997521.289 5 112204387.107 5        31.000 5      3386.084 5
  22834285.746 5 119994981.000 5        35.000 5      1070.508 5
  21670725.046 5 115557818.886 5        32.000 5     -2976.074 5
  21286632.003 6 111862005.915 6        39.000 6     -2247.834 6
  23450275.043 6 123232026.166 6        39.000 6      2814.697 6
  21220040.288 5 111512064.192 5        33.000 5      2506.787 5
  23817130.626 7 125159866.298 7        43.000 7      4085.516 7
 16  6  6 11 11 32.3000000  0 16G12R20G19G32R01R10R21R19G14R11G06R09
                                G24G02G25G29
  19832580.473 8 104220912.067 8        51.000 8       196.630 8
  19763871.713 8 105686323.220 8        48.000 8      2172.802 8
  22662969.695 6 119094708.577 6        37.000 6     -2812.778 6
  22227925.746 6 116808537.729 6        38.000 6       617.188 6
  22703320.898 6 121362281.976 6        37.000 6     -2405.183 6
  19092471.329 7 101773640.073 7        45.000 7        68.046 7
  22638480.885 6 121143126.925 6        37.000 6      4773.626 6
  20810905.546 6 111324359.325 6        36.000 6     -2291.150 6
  22633605.276 4 118940398.067 4        29.000 4      1606.299 4
  20997393.157 5 112203701.896 5        34.000 5      3390.136 5
  22834244.494 5 119994763.776 5        33.000 5      1080.077 5
  21670836.671 6 115558414.144 6        39.000 6     -2954.053 6
  21286716.864 7 111862451.985 7        42.000 7     -2243.824 7
  23450158.942 7 123231416.677 7        43.000 7      2808.437 7
  21219948.060 5 111511579.036 5        34.000 5      2500.043 5
  23816975.127 7 125159049.104 7        45.000 7      4085.779 7
 16  6  6 11 11 32.6000000  0 16G12R20R02G32R01R10R21R19G14R11G06R09
                                G24G02G25G29
  19832569.488 8 104220853.183 8        50.000 8       196.821 8
  19763748.152 7 105685672.138 7        44.000 7      2169.797 7
  22680711.837 5 121028623.299 5        34.000 5      1237.648 5
  22227902.934 6 116808417.838 6        36.000 6       608.643 6
  22703452.469 6 121362985.337 6        39.000 6     -2401.983 6
  19092467.521 7 101773619.651 7        45.000 7        68.266 7
  22638213.578 6 121141696.189 6        37.000 6      4794.385 6
  20811030.825 5 111325030.097 5        34.000 5     -2275.215 5
  22633511.529 5 118939905.174 5        34.000 5      1579.351 5
  20997197.099 4 112202654.670 4        25.000 4      3389.566 4
  22834187.641 6 119994465.032 6        36.000 6      1072.168 6
  21671003.107 6 115559302.397 6        36.000 6     -2969.208 6
  21286848.054 7 111863141.031 7        46.000 7     -2247.047 7
  23449999.652 6 123230574.176 6        40.000 6      2806.835 6
  21219805.945 5 111510832.146 5        30.000 5      2513.525 5
  23816741.752 7 125157823.675 7        46.000 7      4084.186 7
 16  6  6 11 11 32.8000000  0 16G12R20R02G32R01R10R21R19G14R11G06R09
                                G24G02G25G29
  19832562.046 8 104220813.960 8        50.000 8       195.809 8
  19763664.596 7 105685238.359 7        46.000 7      2167.999 7
  22680652.502 6 121028306.682 6        40.000 6      1239.569 6
  22227881.785 6 116808306.869 6        39.000 6       601.221 6
  22703538.476 4 121363445.833 4        29.000 4     -2380.004 4
  19092465.073 7 101773606.069 7        44.000 7        67.508 7
  22638032.118 6 121140725.092 6        39.000 6      4781.836 6
  20811112.968 5 111325469.380 5        35.000 5     -2277.832 5
  22633447.630 5 118939569.614 5        33.000 5      1582.422 5
  20997068.164 5 112201965.598 5        31.000 5      3378.784 5
  22834146.140 5 119994247.473 5        31.000 5      1072.998 5
  21671116.101 5 115559904.363 5        32.000 5     -2962.407 5
  21286931.959 6 111863581.550 6        40.000 6     -2250.732 6
  23449891.029 6 123230012.632 6        40.000 6      2806.746 6
  21219707.975 5 111510317.295 5        31.000 5      2508.057 5
  23816586.362 7 125157006.840 7        45.000 7      4083.624 7
 16  6  6 11 11 33.0000000  0 17G12R20R02G19G32R01R10R21R19G14R11G06
                                R09G24G02G25G29
  19832554.534 8 104220774.679 8        51.000 8       196.095 8
  19763584.897 7 105684804.773 7        45.000 7      2167.538 7
  22680596.692 6 121028009.503 6        41.000 6      1250.848 6
  22663321.016 5 119096554.808 5        33.000 5     -2817.285 5
  22227853.192 6 116808156.608 6        41.000 6       626.660 6
  22703632.607 5 121363948.414 5        33.000 5     -2388.414 5
  19092462.565 7 101773592.620 7        44.000 7        67.883 7
  22637853.737 7 121139770.067 7        42.000 7      4761.328 7
  20811195.119 6 111325908.861 6        38.000 6     -2293.799 6
  22633384.613 5 118939238.399 5        33.000 5      1594.015 5
  20996941.479 5 112201288.803 5        31.000 5      3367.525 5
  22834108.688 5 119994050.128 5        32.000 5      1084.473 5
  21671227.927 5 115560500.596 5        32.000 5     -2967.005 5
  21287014.966 7 111864017.847 7        45.000 7     -2252.291 7
  23449785.481 6 123229454.418 6        40.000 6      2806.152 6
  21219612.387 5 111509815.488 5        34.000 5      2494.775 5
  23816430.968 7 125156190.081 7        44.000 7      4083.472 7
 16  6  6 11 11 33.3000000  0 16G12R20R02G19G32R01R10R21R19G14G06R09
                                G24G02G25G29
  19832543.213 8 104220715.869 8        51.000 8       195.588 8
  19763462.915 7 105684154.916 7        46.000 7      2164.976 7
  22680533.789 6 121027673.657 6        37.000 6      1236.963 6
  22663515.123 5 119097574.904 5        33.000 5     -2835.449 5
  22227808.489 6 116807921.609 6        41.000 6       614.795 6
  22703765.111 5 121364656.525 5        33.000 5     -2388.837 5
  19092458.765 7 101773572.583 7        45.000 7        66.595 7
  22637588.856 6 121138353.119 6        39.000 6      4783.252 6
  20811314.875 6 111326549.496 6        37.000 6     -2289.698 6
  22633282.503 5 118938702.229 5        34.000 5      1582.275 5
  22834048.554 4 119993734.800 4        26.000 4      1081.833 4
  21671397.286 5 115561403.440 5        35.000 5     -2978.909 5
  21287144.638 7 111864694.047 7        46.000 7     -2255.450 7
  23449623.735 7 123228604.052 7        42.000 7      2804.370 7
  21219469.317 5 111509063.602 5        35.000 5      2511.621 5
  23816198.156 7 125154965.067 7        44.000 7      4082.995 7
 16  6  6 11 11 33.5000000  0 17G12R20R02G19G32R01R10R21R19G14R11G06
                                R09G24G02G25G29
  19832535.862 8 104220676.640 8        50.000 8       196.637 8
  19763381.034 7 105683721.928 7        45.000 7      2164.471 7
  22680487.567 6 121027427.497 6        37.000 6      1220.020 6
  22663620.558 5 119098129.147 5        33.000 5     -2844.922 5
  22227784.626 6 116807795.796 6        38.000 6       634.521 6
  22703857.698 5 121365152.063 5        33.000 5     -2387.583 5
  19092456.318 7 101773559.345 7        46.000 7        66.170 7
  22637409.376 6 121137392.631 6        40.000 6      4774.262 6
  20811402.873 5 111327019.706 5        34.000 5     -2288.184 5
  22633224.342 6 118938396.394 6        36.000 6      1575.488 6
  20996624.618 5 112199595.644 5        31.000 5      3371.310 5
  22834008.781 5 119993525.262 5        31.000 5      1079.688 5
  21671510.612 5 115562007.769 5        35.000 5     -2992.408 5
  21287229.926 7 111865145.033 7        47.000 7     -2254.537 7
  23449516.264 7 123228043.406 7        42.000 7      2803.217 7
  21219376.199 5 111508574.536 5        35.000 5      2505.566 5
  23816042.892 7 125154148.465 7        45.000 7      4083.710 7
 16  6  6 11 11 33.7000000  0 17G12R20R02G19G32R01R10R21R19G14R11G06
                                R09G24G02G25G29
  19832528.659 8 104220637.357 8        51.000 8       196.474 8
  19763299.572 7 105683289.051 7        46.000 7      2164.179 7
  22680441.337 6 121027180.157 6        40.000 6      1245.752 6
  22663704.637 6 119098571.431 6        39.000 6     -2820.898 6
  22227757.892 6 116807656.072 6        37.000 6       621.533 6
  22703945.738 5 121365622.927 5        32.000 5     -2379.014 5
  19092453.748 7 101773546.037 7        45.000 7        66.125 7
  22637227.444 6 121136418.677 6        39.000 6      4784.619 6
  20811484.064 6 111327454.197 6        40.000 6     -2287.451 6
  22633164.256 5 118938080.678 5        34.000 5      1563.672 5
  20996495.282 5 112198904.149 5        31.000 5      3364.177 5
  22833969.474 5 119993318.910 5        31.000 5      1089.404 5
  21671623.056 5 115562607.455 5        35.000 5     -2980.691 5
  21287314.433 7 111865596.228 7        45.000 7     -2256.519 7
  23449406.109 7 123227482.903 7        43.000 7      2802.035 7
  21219280.955 5 111508073.637 5        34.000 5      2494.476 5
  23815887.524 7 125153332.005 7        42.000 7      4083.203 7
 16  6  6 11 11 33.8999998  0 16G12R20R02G19G32R10R21R19G14R11G06R09
                                G24G02G25G29
  19832521.169 8 104220598.056 8        51.000 8       196.229 8
  19763219.044 7 105682856.370 7        46.000 7      2163.080 7
  22680383.145 6 121026869.327 6        38.000 6      1263.623 6
  22663821.458 6 119099184.622 6        37.000 6     -2828.906 6
  22227733.340 6 116807526.209 6        41.000 6       630.366 6
  19092451.353 7 101773532.862 7        46.000 7        64.764 7
  22637052.641 6 121135483.307 6        41.000 6      4784.863 6
  20811570.377 6 111327915.763 6        36.000 6     -2284.381 6
  22633108.795 5 118937789.353 5        34.000 5      1553.320 5
  20996368.973 5 112198229.344 5        32.000 5      3365.737 5
  22833926.643 5 119993093.810 5        31.000 5      1096.923 5
  21671733.992 5 115563199.362 5        35.000 5     -2979.584 5
  21287400.594 7 111866047.599 7        46.000 7     -2258.179 7
  23449304.989 7 123226922.572 7        45.000 7      2802.227 7
  21219184.582 5 111507567.003 5        30.000 5      2492.965 5
  23815732.130 7 125152515.494 7        43.000 7      4081.659 7
 16  6  6 11 11 34.1000000  0 16G12R20R02G19G32R01R10R21R19G14R11R09
                                G24G02G25G29
  19832513.709 8 104220558.741 8        51.000 8       196.567 8
  19763138.437 7 105682423.896 7        45.000 7      2161.897 7
  22680334.079 6 121026607.895 6        38.000 6      1258.691 6
  22663922.237 5 119099714.546 5        34.000 5     -2825.390 5
  22227704.412 7 116807399.722 7        43.000 7       633.940 7
  22704125.249 5 121366582.518 5        32.000 5     -2411.692 5
  19092448.949 7 101773519.624 7        46.000 7        65.811 7
  22636875.439 6 121134535.458 6        41.000 6      4769.997 6
  20811650.940 7 111328373.322 7        42.000 7     -2291.199 7
  22633047.698 5 118937467.519 5        35.000 5      1576.855 5
  20996239.174 5 112197536.007 5        32.000 5      3373.542 5
  21671846.646 5 115563800.097 5        35.000 5     -2973.227 5
  21287486.959 7 111866499.101 7        45.000 7     -2258.174 7
  23449194.364 7 123226362.456 7        45.000 7      2799.760 7
  21219090.150 5 111507070.899 5        30.000 5      2490.932 5
  23815576.911 7 125151698.981 7        43.000 7      4081.610 7
 16  6  6 11 11 34.3000000  0 15G12R20R02G19G32R10R21R19G14R11G06R09
                                G24G02G29
  19832506.275 8 104220519.414 8        51.000 8       196.227 8
  19763058.572 7 105681991.509 7        46.000 7      2161.466 7
  22680290.825 6 121026377.380 6        38.000 6      1242.139 6
  22664028.177 6 119100271.227 6        39.000 6     -2819.287 6
  22227682.760 7 116807273.805 7        43.000 7       629.108 7
  19092446.467 7 101773506.583 7        45.000 7        65.543 7
  22636699.056 5 121133582.255 5        34.000 5      4764.428 5
  20811730.361 6 111328830.017 6        41.000 6     -2280.933 6
  22632980.213 6 118937112.885 6        40.000 6      1570.801 6
  20996110.090 5 112196845.750 5        35.000 5      3366.797 5
  22833845.333 5 119992666.603 5        34.000 5      1075.551 5
  21671958.471 5 115564395.955 5        34.000 5     -2966.016 5
  21287571.706 7 111866950.696 7        45.000 7     -2258.448 7
  23449088.092 7 123225802.360 7        44.000 7      2800.828 7
  23815421.604 6 125150882.617 6        37.000 6      4082.806 6
 16  6  6 11 11 34.5000000  0 16G12R20R02G19G32R01R10R21R19G14R11R09
                                G24G02G25G29
  19832498.728 8 104220480.163 8        51.000 8       196.302 8
  19762978.296 7 105681559.269 7        46.000 7      2161.000 7
  22680239.552 6 121026103.568 6        38.000 6      1254.834 6
  22664132.272 6 119100818.377 6        38.000 6     -2833.594 6
  22227657.772 7 116807147.454 7        44.000 7       631.271 7
  22704307.412 4 121367556.040 4        27.000 4     -2377.139 4
  19092444.072 7 101773493.620 7        46.000 7        65.060 7
  22636520.606 5 121132636.854 5        35.000 5      4772.312 5
  20811810.872 5 111329202.481 5        35.000 5     -2273.868 5
  22632919.500 7 118936793.768 7        43.000 7      1551.660 7
  20995973.363 6 112196114.816 6        39.000 6      3357.715 6
  21672069.939 4 115564990.578 4        25.000 4     -2967.690 4
  21287659.280 7 111867402.469 7        45.000 7     -2259.192 7
  23448984.730 7 123225242.280 7        43.000 7      2799.685 7
  21218899.467 5 111506068.496 5        34.000 5      2520.652 5
  23815268.129 6 125150077.714 6        37.000 6      4079.494 6
 16  6  6 11 11 34.7000000  0 15G12R20R02G19G32R01R10R21R19G14R11G06
                                G24G02G29
  19832491.290 8 104220440.973 8        51.000 8       196.258 8
  19762897.358 7 105681127.158 7        46.000 7      2160.667 7
  22680191.376 6 121025846.227 6        36.000 6      1261.377 6
  22664236.472 6 119101366.436 6        40.000 6     -2826.904 6
  22227630.213 7 116806984.416 7        44.000 7       633.252 7
  22704391.884 4 121368007.714 4        27.000 4     -2377.771 4
  19092441.660 7 101773480.775 7        45.000 7        64.091 7
  22636346.684 6 121131706.077 6        37.000 6      4787.193 6
  20811894.532 6 111329649.819 6        41.000 6     -2281.146 6
  22632859.231 7 118936477.384 7        44.000 7      1555.254 7
  20995847.185 6 112195441.047 6        37.000 6      3364.599 6
  22833759.989 5 119992218.202 5        30.000 5      1074.472 5
  21287745.772 7 111867854.333 7        44.000 7     -2259.272 7
  23448881.098 6 123224682.256 6        39.000 6      2801.786 6
  23815112.080 5 125149257.999 5        31.000 5      4080.575 5
 16  6  6 11 11 35.0000000  0 16G12R20R02G19G32R01R10R21R19G14R11R09
                                G24G02G25G29
  19832480.226 8 104220382.114 8        51.000 8       196.422 8
  19762777.418 7 105680479.051 7        46.000 7      2160.239 7
  22680117.732 5 121025453.684 5        33.000 5      1262.354 5
  22664396.656 6 119102207.602 6        38.000 6     -2828.809 6
  22227605.844 7 116806856.635 7        46.000 7       595.654 7
  22704522.782 5 121368706.830 5        32.000 5     -2379.289 5
  19092437.999 7 101773461.459 7        47.000 7        64.508 7
  22636079.037 5 121130273.530 5        30.000 5      4768.242 5
  20812019.079 7 111330334.124 7        47.000 7     -2283.575 7
  22632772.167 6 118936020.441 6        38.000 6      1546.582 6
  20995654.967 5 112194413.801 5        35.000 5      3411.084 5
  21672351.367 5 115566491.884 5        31.000 5     -2981.624 5
  21287873.010 7 111868532.207 7        44.000 7     -2260.958 7
  23448722.104 5 123223865.535 5        33.000 5      2807.617 5
  21218650.191 6 111504758.494 6        36.000 6      2505.615 6
  23814881.445 5 125148046.178 5        31.000 5      4087.347 5
 16  6  6 11 11 35.2000000  0 15G12R20R02G19G32R01R10R21R19R11G06G24
                                G02G25G29
  19832472.635 8 104220342.770 8        51.000 8       196.648 8
  19762696.288 7 105680047.011 7        45.000 7      2159.950 7
  22680067.732 6 121025187.070 6        40.000 6      1250.635 6
  22664503.914 6 119102771.613 6        40.000 6     -2829.297 6
  22227588.224 7 116806764.424 7        44.000 7       575.195 7
  22704610.317 5 121369174.691 5        32.000 5     -2362.504 5
  19092435.613 7 101773448.572 7        43.000 7        64.332 7
  22635902.393 5 121129328.408 5        34.000 5      4761.111 5
  20812101.762 7 111330758.235 7        45.000 7     -2278.296 7
  20995524.626 5 112193716.938 5        35.000 5      3405.420 5
  22833656.832 5 119991676.211 5        30.000 5      1122.498 5
  21287961.679 7 111868983.965 7        44.000 7     -2259.075 7
  23448620.435 5 123223331.753 5        35.000 5      2867.725 5
  21218552.928 6 111504247.864 6        39.000 6      2490.872 6
  23814729.397 5 125147247.423 5        35.000 5      4084.411 5
 16  6  6 11 11 35.3999998  0 14G12R20R02G19G32R10R21R19R11R09G24G02
                                G25G29
  19832465.145 8 104220303.493 8        51.000 8       196.162 8
  19762614.206 7 105679614.990 7        45.000 7      2160.005 7
  22680022.445 6 121024944.683 6        37.000 6      1249.805 6
  22664608.759 6 119103321.937 6        36.000 6     -2823.997 6
  22227561.342 7 116806622.926 7        47.000 7       582.471 7
  19092433.122 7 101773435.664 7        43.000 7        63.635 7
  22635723.114 5 121128369.275 5        30.000 5      4754.496 5
  20812185.414 7 111331214.476 7        47.000 7     -2283.130 7
  20995396.372 6 112193032.345 6        36.000 6      3371.289 6
  21672577.095 4 115567695.568 4        26.000 4     -2951.906 4
  21288046.095 7 111869435.908 7        46.000 7     -2259.806 7
  23448514.525 5 123222775.495 5        31.000 5      2933.496 5
  21218455.604 6 111503736.027 6        36.000 6      2517.856 6
  23814572.895 5 125146425.084 5        31.000 5      4077.341 5
 16  6  6 11 11 35.6000000  0 14G12R20R02G19G32R01R10R21R19R11G06G24
                                G25G29
  19832457.641 8 104220264.182 8        51.000 8       196.617 8
  19762533.189 7 105679183.018 7        46.000 7      2159.851 7
  22679974.653 6 121024689.760 6        37.000 6      1253.857 6
  22664721.431 6 119103914.248 6        36.000 6     -2816.504 6
  22227538.342 7 116806501.383 7        42.000 7       590.723 7
  22704786.215 5 121370115.402 5        31.000 5     -2386.493 5
  19092430.701 7 101773422.787 7        46.000 7        65.328 7
  22635542.456 5 121127402.181 5        30.000 5      4768.530 5
  20812276.387 8 111331670.813 8        51.000 8     -2283.685 8
  20995268.955 6 112192350.660 6        36.000 6      3381.787 6
  22833571.334 5 119991226.807 5        30.000 5      1091.807 5
  21288130.981 7 111869887.851 7        44.000 7     -2260.842 7
  21218362.480 6 111503246.446 6        41.000 6      2525.078 6
  23814416.026 5 125145600.065 5        31.000 5      4083.856 5
 16  6  6 11 11 35.8000000  0 16G12R20R02G19G32R01R10R21R19G14R11G06
                                R09G24G25G29
  19832450.290 8 104220224.869 8        51.000 8       196.908 8
  19762452.233 7 105678751.125 7        46.000 7      2159.651 7
  22679926.495 6 121024433.086 6        37.000 6      1252.979 6
  22664832.353 5 119104497.402 5        33.000 5     -2822.217 5
  22227514.239 6 116806375.235 6        40.000 6       598.096 6
  22704877.859 5 121370604.839 5        31.000 5     -2411.250 5
  19092428.201 7 101773409.920 7        44.000 7        64.577 7
  22635367.583 5 121126467.009 5        34.000 5      4764.751 5
  20812364.366 6 111332127.437 6        41.000 6     -2282.276 6
  22632524.649 6 118934719.641 6        39.000 6      1580.029 6
  20995141.956 6 112191672.012 6        36.000 6      3376.855 6
  22833531.805 5 119991018.548 5        31.000 5      1091.200 5
  21672801.618 4 115568892.182 4        27.000 4     -2977.771 4
  21288218.001 7 111870339.821 7        45.000 7     -2260.542 7
  21218262.451 6 111502721.735 6        39.000 6      2521.790 6
  23814265.374 5 125144808.744 5        31.000 5      4087.394 5
 16  6  6 11 11 36.0000000  0 14G12R20R02G19G32R10R21R19G14R11R09G24
                                G25G29
  19832442.883 8 104220185.594 8        51.000 8       196.615 8
  19762371.775 7 105678319.340 7        46.000 7      2159.200 7
  22679883.415 6 121024202.672 6        39.000 6      1252.393 6
  22664940.667 6 119105066.486 6        37.000 6     -2827.734 6
  22227486.240 7 116806228.326 7        43.000 7       635.547 7
  19092425.850 7 101773397.098 7        46.000 7        64.781 7
  22635190.677 5 121125520.175 5        30.000 5      4764.019 5
  20812454.274 7 111332644.498 7        42.000 7     -2293.408 7
  22632452.724 6 118934341.411 6        40.000 6      1587.109 6
  20995015.394 6 112190996.183 6        36.000 6      3384.961 6
  21672917.125 5 115569508.356 5        32.000 5     -2988.078 5
  21288303.965 7 111870791.852 7        46.000 7     -2259.696 7
  21218165.664 6 111502212.697 6        40.000 6      2529.814 6
  23814108.553 4 125143985.084 4        25.000 4      4088.888 4
 16  6  6 11 11 36.2000000  0 16G12R20R02G19G32R01R10R21R19G14R11G06
                                R09G24G25G29
  19832435.384 8 104220146.319 8        51.000 8       195.856 8
  19762290.897 7 105677887.640 7        46.000 7      2157.405 7
  22679835.291 6 121023945.930 6        38.000 6      1260.059 6
  22665052.514 6 119105654.524 6        38.000 6     -2819.824 6
  22227457.522 6 116806077.474 6        37.000 6       636.621 6
  22705055.782 5 121371556.658 5        31.000 5     -2399.158 5
  19092423.524 7 101773384.347 7        44.000 7        63.402 7
  22635014.643 5 121124578.305 5        30.000 5      4777.818 5
  20812538.703 6 111333096.280 6        38.000 6     -2286.363 6
  22632407.837 7 118934105.302 7        42.000 7      1556.396 7
  20994883.440 5 112190291.537 5        34.000 5      3398.828 5
  22833453.999 5 119990609.913 5        34.000 5      1068.436 5
  21673027.494 5 115570097.286 5        32.000 5     -2982.696 5
  21288390.313 7 111871244.023 7        47.000 7     -2261.838 7
  21218073.038 6 111501725.639 6        39.000 6      2526.514 6
  23813958.748 4 125143197.486 4        26.000 4      4093.042 4
 16  6  6 11 11 36.3999998  0 15G12R20R02G19G32R01R10R21R19G14R11G06
                                G24G25G29
  19832427.801 8 104220107.027 8        50.000 8       196.301 8
  19762210.317 7 105677455.979 7        46.000 7      2158.287 7
  22679786.452 5 121023685.837 5        33.000 5      1249.316 5
  22665160.326 6 119106220.825 6        36.000 6     -2819.540 6
  22227435.404 6 116805960.724 6        39.000 6       599.121 6
  22705143.639 5 121372025.701 5        31.000 5     -2390.285 5
  19092421.016 7 101773371.541 7        44.000 7        64.471 7
  22634837.833 5 121123631.275 5        30.000 5      4806.330 5
  20812624.894 6 111333557.030 6        41.000 6     -2292.480 6
  22632356.682 5 118933836.351 5        32.000 5      1512.549 5
  20994754.688 6 112189603.085 6        37.000 6      3406.592 6
  22833412.629 5 119990392.600 5        31.000 5      1062.294 5
  21288475.444 7 111871696.253 7        45.000 7     -2261.571 7
  21217977.498 6 111501223.634 6        41.000 6      2520.412 6
  23813804.187 4 125142384.758 4        26.000 4      4095.853 4
 16  6  6 11 11 36.6000000  0 13G12R20R02G19G32R10R21R19R11G06G24G25
                                G29
  19832420.272 8 104220067.853 8        50.000 8       195.775 8
  19762129.710 7 105677024.601 7        46.000 7      2156.064 7
  22679740.205 6 121023439.227 6        36.000 6      1245.215 6
  22665270.367 7 119106799.373 7        42.000 7     -2830.322 7
  22227413.848 6 116805847.529 6        36.000 6       622.656 6
  19092418.525 6 101773358.904 6        41.000 6        61.586 6
  22634659.584 5 121122677.387 5        30.000 5      4792.542 5
  20812710.238 6 111334012.933 6        39.000 6     -2275.946 6
  20994628.370 5 112188928.011 5        34.000 5      3369.189 5
  22833370.399 5 119990171.133 5        34.000 5      1054.673 5
  21288562.133 7 111872148.703 7        45.000 7     -2262.505 7
  21217876.605 6 111500693.139 6        41.000 6      2523.730 6
  23813654.167 4 125141596.592 4        26.000 4      4075.487 4
 16  6  6 11 11 36.8000000  0 14G12R20R02G19G32R10R21R19R11G06G24G02
                                G25G29
  19832412.903 8 104220028.713 8        50.000 8       195.824 8
  19762048.649 7 105676593.116 7        45.000 7      2157.365 7
  22679694.359 5 121023194.311 5        34.000 5      1227.734 5
  22665375.805 6 119107353.377 6        41.000 6     -2820.703 6
  22227390.151 5 116805723.165 5        34.000 5       611.572 5
  19092416.182 7 101773346.216 7        45.000 7        62.544 7
  22634482.957 5 121121732.893 5        30.000 5      4758.596 5
  20812798.358 6 111334485.271 6        39.000 6     -2281.787 6
  20994509.303 5 112188291.835 5        30.000 5      3303.760 5
  22833326.089 5 119989937.518 5        34.000 5      1070.801 5
  21288649.161 7 111872601.114 7        45.000 7     -2261.586 7
  23447769.567 5 123218860.525 5        32.000 5      2802.483 5
  21217786.985 6 111500222.932 6        38.000 6      2526.382 6
  23813500.950 4 125140791.834 4        26.000 4      4114.138 4
 16  6  6 11 11 37.0000000  0 16G12R20R02G19G32R01R10R21R19G14G06R09
                                G24G02G25G29
  19832405.395 8 104219989.574 8        50.000 8       195.901 8
  19761967.868 7 105676161.756 7        46.000 7      2157.003 7
  22679649.673 5 121022955.953 5        34.000 5      1206.982 5
  22665487.268 6 119107938.621 6        39.000 6     -2816.309 6
  22227374.803 6 116805642.063 6        40.000 6       574.023 6
  22705409.585 5 121373447.714 5        30.000 5     -2407.465 5
  19092413.735 7 101773333.578 7        45.000 7        62.756 7
  22634306.461 5 121120788.180 5        30.000 5      4790.017 5
  20812886.791 6 111334957.975 6        39.000 6     -2288.428 6
  22632155.743 6 118932780.461 6        38.000 6      1601.556 6
  22833285.369 6 119989723.543 6        36.000 6      1079.053 6
  21673473.931 4 115572477.756 4        28.000 4     -2958.695 4
  21288735.601 7 111873053.556 7        45.000 7     -2261.730 7
  23447667.116 5 123218322.316 5        32.000 5      2830.804 5
  21217687.397 6 111499699.403 6        38.000 6      2517.334 6
  23813349.722 4 125139997.131 4        26.000 4      4075.264 4
 16  6  6 11 11 37.2000000  0 16G12R20R02G19G32R01R10R21R19G14G06R09
                                G24G02G25G29
  19832397.743 8 104219950.440 8        51.000 8       195.444 8
  19761887.208 7 105675730.336 7        46.000 7      2156.854 7
  22679605.808 5 121022722.104 5        30.000 5      1217.871 5
  22665596.895 6 119108514.717 6        36.000 6     -2827.100 6
  22227355.050 5 116805538.994 5        34.000 5       517.334 5
  22705500.164 5 121373931.363 5        30.000 5     -2426.412 5
  19092411.436 7 101773320.945 7        45.000 7        63.526 7
  22634128.831 4 121119837.633 4        29.000 4      4788.771 4
  20812971.944 6 111335413.661 6        37.000 6     -2290.821 6
  22632091.068 5 118932440.310 5        35.000 5      1598.682 5
  22833243.763 6 119989505.738 6        36.000 6      1068.604 6
  21673585.285 4 115573071.061 4        28.000 4     -2946.913 4
  21288820.666 7 111873505.932 7        44.000 7     -2261.365 7
  23447548.987 6 123217700.592 6        41.000 6      2806.390 6
  21217593.720 5 111499206.780 5        34.000 5      2506.299 5
  23813200.051 4 125139210.075 4        26.000 4      4114.652 4
 16  6  6 11 11 37.3999998  0 15G12R20R02G19G32R10R21R19G14R11G06G24
                                G02G25G29
  19832390.297 8 104219911.301 8        50.000 8       196.110 8
  19761806.619 7 105675298.901 7        46.000 7      2157.169 7
  22679559.717 5 121022476.181 5        35.000 5      1237.646 5
  22665702.748 7 119109071.700 7        42.000 7     -2824.069 7
  22227337.586 5 116805447.229 5        31.000 5       480.518 5
  19092409.015 7 101773308.406 7        44.000 7        62.928 7
  22633952.719 4 121118895.238 4        29.000 4      4779.898 4
  20813058.100 6 111335873.739 6        40.000 6     -2281.543 6
  22632027.933 6 118932120.979 6        40.000 6      1594.334 6
  20994127.689 5 112186253.030 5        30.000 5      3406.552 5
  22833204.483 6 119989298.600 6        36.000 6      1058.203 6
  21288904.890 7 111873958.304 7        44.000 7     -2261.514 7
  23447444.914 6 123217154.118 6        36.000 6      2806.641 6
  21217494.140 6 111498683.499 6        37.000 6      2522.538 6
  23813046.494 4 125138403.430 4        27.000 4      4095.426 4
 16  6  6 11 11 37.6000000  0 16G12R20R02G19R01R10R21R19G14R11G06R09
                                G24G02G25G29
  19832383.002 8 104219872.152 8        50.000 8       196.660 8
  19761725.960 7 105674867.428 7        46.000 7      2157.483 7
  22679513.025 5 121022227.047 5        35.000 5      1239.111 5
  22665812.065 5 119109645.798 5        33.000 5     -2825.098 5
  22705677.912 5 121374882.396 5        30.000 5     -2400.195 5
  19092406.759 6 101773295.845 6        41.000 6        63.160 6
  22633774.417 5 121117940.793 5        30.000 5      4779.816 5
  20813145.495 6 111336341.543 6        37.000 6     -2286.670 6
  22631969.475 6 118931801.527 6        39.000 6      1589.941 6
  20993991.642 5 112185525.430 5        35.000 5      3403.631 5
  22833166.105 6 119989097.228 6        36.000 6      1066.064 6
  21673812.007 5 115574280.678 5        33.000 5     -2950.118 5
  21288990.893 7 111874410.556 7        43.000 7     -2260.980 7
  23447337.521 5 123216589.386 5        33.000 5      2816.650 5
  21217398.413 6 111498180.459 6        40.000 6      2520.068 6
  23812899.785 5 125137632.307 5        31.000 5      4101.545 5
 16  6  6 11 11 37.8000000  0 15G12R20R02G19R01R10R21R19R11G06R09G24
                                G02G25G29
  19832375.643 8 104219833.116 8        50.000 8       195.570 8
  19761645.344 7 105674436.055 7        46.000 7      2156.863 7
  22679469.116 5 121021992.066 5        34.000 5      1224.121 5
  22665920.287 4 119110214.694 4        26.000 4     -2820.459 4
  22705766.058 5 121375352.896 5        30.000 5     -2394.404 5
  19092404.355 6 101773283.272 6        41.000 6        63.864 6
  22633595.548 5 121116983.650 5        30.000 5      4772.373 5
  20813230.115 6 111336794.021 6        39.000 6     -2282.227 6
  20993858.196 6 112184812.518 6        36.000 6      3403.271 6
  22833127.257 5 119988892.907 5        33.000 5      1071.826 5
  21673923.580 6 115574875.060 6        36.000 6     -2989.000 6
  21289077.494 7 111874862.917 7        44.000 7     -2261.438 7
  23447234.046 5 123216046.356 5        33.000 5      2809.375 5
  21217305.735 6 111497694.014 6        40.000 6      2522.070 6
  23812743.580 4 125136811.188 4        26.000 4      4081.682 4
 16  6  6 11 11 38.0000000  0 17G12R20R02G19G32R01R10R21R19G14R11G06
                                R09G24G02G25G29
  19832368.322 8 104219794.038 8        51.000 8       195.300 8
  19761564.632 7 105674004.615 7        45.000 7      2157.524 7
  22679425.058 5 121021757.107 5        34.000 5      1201.807 5
  22666021.734 6 119110748.077 6        39.000 6     -2813.825 6
  22227273.282 5 116805108.656 5        35.000 5       576.506 5
  22705855.756 5 121375832.793 5        30.000 5     -2388.376 5
  19092402.048 7 101773270.722 7        45.000 7        62.029 7
  22633420.056 4 121116044.936 4        29.000 4      4786.398 4
  20813314.998 6 111337248.060 6        41.000 6     -2288.166 6
  22631855.996 4 118931205.060 4        29.000 4      1579.162 4
  20993726.320 6 112184107.353 6        37.000 6      3403.076 6
  22833091.257 5 119988704.319 5        33.000 5      1122.119 5
  21674026.985 7 115575426.342 7        44.000 7     -2992.287 7
  21289163.864 7 111875315.239 7        44.000 7     -2262.089 7
  23447140.857 6 123215555.962 6        37.000 6      2819.629 6
  21217208.502 6 111497182.617 6        40.000 6      2521.184 6
  23812588.412 4 125135996.312 4        27.000 4      4077.706 4
 16  6  6 11 11 38.2000000  0 15G12R20R02G19G32R01R10R21R19R11R09G24
                                G02G25G29
  19832360.701 8 104219754.999 8        50.000 8       196.173 8
  19761484.069 7 105673573.157 7        46.000 7      2157.098 7
  22679383.112 5 121021533.849 5        34.000 5      1197.461 5
  22666126.950 6 119111300.404 6        36.000 6     -2817.348 6
  22227248.590 5 116804978.888 5        32.000 5       590.874 5
  22705943.012 5 121376298.923 5        30.000 5     -2375.449 5
  19092399.783 8 101773258.179 8        48.000 8        63.085 8
  22633241.684 4 121115090.273 4        29.000 4      4782.893 4
  20813400.264 7 111337704.850 7        44.000 7     -2285.449 7
  20993598.293 6 112183423.306 6        37.000 6      3405.176 6
  21674138.113 6 115576019.069 6        36.000 6     -2994.729 6
  21289250.605 7 111875767.387 7        44.000 7     -2261.023 7
  23447034.249 5 123214995.898 5        35.000 5      2819.970 5
  21217110.179 5 111496665.645 5        35.000 5      2520.361 5
  23812433.380 4 125135181.041 4        27.000 4      4068.170 4
 16  6  6 11 11 38.3999998  0 14G12R20G19G32R01R10R21R19R11R09G24G02
                                G25G29
  19832353.032 8 104219715.885 8        50.000 8       195.082 8
  19761403.331 7 105673141.545 7        46.000 7      2157.504 7
  22666238.509 5 119111886.739 5        34.000 5     -2815.685 5
  22227218.384 5 116804820.921 5        32.000 5       618.397 5
  22706030.607 5 121376767.269 5        30.000 5     -2377.375 5
  19092397.476 7 101773245.651 7        46.000 7        62.112 7
  22633063.426 4 121114136.659 4        29.000 4      4757.889 4
  20813484.849 6 111338157.442 6        40.000 6     -2289.893 6
  20993469.314 6 112182734.366 6        37.000 6      3401.713 6
  21674247.696 5 115576603.302 5        34.000 5     -2973.145 5
  21289335.099 7 111876219.456 7        43.000 7     -2260.503 7
  23446920.561 6 123214398.814 6        37.000 6      2804.834 6
  21217012.108 5 111496151.111 5        32.000 5      2497.949 5
  23812277.205 4 125134361.170 4        26.000 4      4098.729 4
 16  6  6 11 11 38.6000000  0 15G12R20G19G32R01R10R21R19R11G06R09G24
                                G02G25G29
  19832345.585 8 104219676.915 8        50.000 8       194.722 8
  19761322.637 7 105672710.057 7        46.000 7      2157.894 7
  22666342.630 5 119112433.891 5        34.000 5     -2820.294 5
  22227174.719 6 116804591.247 6        40.000 6       631.486 6
  22706117.095 5 121377229.827 5        34.000 5     -2375.328 5
  19092395.133 7 101773233.227 7        45.000 7        63.259 7
  22632885.333 4 121113183.995 4        29.000 4      4782.670 4
  20813568.868 6 111338606.745 6        40.000 6     -2285.938 6
  20993342.455 5 112182053.983 5        30.000 5      3402.975 5
  22832964.948 6 119988040.222 6        37.000 6      1063.917 6
  21674360.123 6 115577202.611 6        36.000 6     -2981.641 6
  21289420.469 7 111876671.606 7        43.000 7     -2260.160 7
  23446808.426 6 123213809.723 6        37.000 6      2803.271 6
  21216921.498 5 111495674.437 5        33.000 5      2517.627 5
  23812123.456 4 125133552.403 4        26.000 4      4083.378 4
